"Search Parameters"	"Volcano Number"	"Volcano Name"	"Country"	"Location"	"Latitude"	"Longitude"	"Elevation (m)"	"Type"	"Status"	"Last Known Eruption"
"[]"										
	250010	"St. Andrew Strait"	"Papua New Guinea"	"Admiralty Is-SW Paci"	-2.38	147.35	270	"Complex volcano"	"Historical"	"D2"
	250020	"Baluan"	"United States"	"Admiralty Is-SW Paci"	-2.57	147.28	254	"Stratovolcano"	"Holocene"	"U"
	250030	"Central Bismarck Sea"	"United States"	"Admiralty Is-SW Paci"	-3.03	147.78	-1300	"Submarine volcano"	"Hydrophonic"	"D1"
		"Dacht-I-Navar Group"	"Afghanistan"	"Afghanistan"	33.95	67.92	3800	"Lava dome"	"Holocene"	"U"
		"Vakak Group"	"Afghanistan"	"Afghanistan"	34.25	67.97	3190	"Volcanic field"	"Holocene"	"U"
	223040	"Karisimbi"	"Congo, DRC"	"Africa-C"	-1.506	29.45	4490	"Stratovolcano"	"Holocene"	"U"
		"May-ya-moto"	"Congo, DRC"	"Africa-C"	-0.93	29.33	950	"Fumarole field"	"Fumarolic"	"Unknown"
	223020	"Nyamulagira"	"Congo, DRC"	"Africa-C"	-1.408	29.2	3058	"Shield volcano"	"Historical"	"D1"
	223030	"Nyiragongo"	"Congo, DRC"	"Africa-C"	-1.52	29.25	3470	"Stratovolcano"	"Historical"	"D1"
	223080	"Tshibinda"	"Congo, DRC"	"Africa-C"	-2.32	28.75	1460	"Cinder cone"	"Holocene"	"U"
	223050	"Visoke"	"Rwanda"	"Africa-C"	-1.458	29.485	3696	"Stratovolcano"	"Historical"	"D2"
	223070	"Bufumbira"	"Uganda"	"Africa-C"	-1.304	29.683	2100	"Cinder cone"	"Holocene"	"Unknown"
	223004	"Bunyaruguru"	"Uganda"	"Africa-C"	-0.2	30.08	1554	"Explosion crater"	"Holocene"	"U"
	223001	"Fort Portal"	"Uganda"	"Africa-C"	0.7	30.25	1615	"Tuff cone"	"Holocene"	"U"
	223005	"Katunga"	"Uganda"	"Africa-C"	-0.471	30.191	1707	"Tuff cone"	"Holocene"	"U"
	223003	"Katwe-Kikorongo"	"Uganda"	"Africa-C"	-0.08	29.92	1067	"Tuff cone"	"Holocene"	"U"
	223002	"Kyatwa"	"Uganda"	"Africa-C"	0.45	30.25	1430	"Tuff cone"	"Holocene"	"Unknown"
	223060	"Muhavura"	"Uganda"	"Africa-C"	-1.383	29.678	4103	"Stratovolcano"	"Holocene"	"U"
	222030	"Barrier, The"	"Kenya"	"Africa-E"	2.32	36.57	1032	"Shield volcano"	"Historical"	"D2"
	222130	"Chyulu Hills"	"Kenya"	"Africa-E"	-2.68	37.88	2188	"Volcanic field"	"Anthropology"	"D3"
	222080	"Eburru, Ol Doinyo"	"Kenya"	"Africa-E"	-0.65	36.22	2856	"Complex volcano"	"Holocene"	"U"
	222071	"Elmenteita Badlands"	"Kenya"	"Africa-E"	-0.546	36.249	2126	"Pyroclastic cone"	"Holocene"	"U"
	222051	"Emuruangogolak"	"Kenya"	"Africa-E"	1.5	36.33	1285	"Shield volcano"	"Radiocarbon"	"D2"
	222070	"Homa Mountain"	"Kenya"	"Africa-E"	-0.38	34.5	1751	"Complex volcano"	"Holocene"	"U"
	222054	"Korosi"	"Kenya"	"Africa-E"	0.77	36.12	1446	"Shield volcano"	"Holocene"	"U"
	222010	"Lake Turkana Central Island"	"Kenya"	"Africa-E"	3.496	36.04	518	"Stratovolcano"	"Holocene"	"U"
	222001	"Lake Turkana North Island"	"Kenya"	"Africa-E"	4.063	36.046	490	"Tuff cone"	"Holocene"	"U"
	222020	"Lake Turkana South Island"	"Kenya"	"Africa-E"	2.636	36.596	800	"Stratovolcano"	"Historical"	"D3"
	222100	"Longonot"	"Kenya"	"Africa-E"	-0.914	36.446	2776	"Stratovolcano"	"Anthropology"	"D3"
	222021	"Marsabit"	"Kenya"	"Africa-E"	2.32	37.97	1707	"Shield volcano"	"Holocene"	"Unknown"
	221330	"Mega Volcanic Field"	"Kenya"	"Africa-E"	3.971	38.213	1500	"Pyroclastic cone"	"Holocene"	"U"
	222060	"Menengai"	"Kenya"	"Africa-E"	-0.2	36.07	2278	"Shield volcano"	"Tephrochronology"	"D7"
	222040	"Namarunu"	"Kenya"	"Africa-E"	1.98	36.43	817	"Shield volcano"	"Tephrochronology"	"D7"
	222056	"Nyambeni Hills"	"Kenya"	"Africa-E"	0.23	37.87	750	"Shield volcano"	"Holocene"	"U"
	222055	"Ol Kokwe"	"Kenya"	"Africa-E"	0.62	36.075	1130	"Shield volcano"	"Holocene"	"U"
	222090	"Olkaria"	"Kenya"	"Africa-E"	-0.904	36.292	2434	"Pumice cone"	"Radiocarbon"	"D4"
	222053	"Paka"	"Kenya"	"Africa-E"	0.92	36.18	1697	"Shield volcano"	"Ar/Ar"	"D7"
	222050	"Segererua Plateau"	"Kenya"	"Africa-E"	1.57	37.9	699	"Pyroclastic cone"	"Holocene"	"U"
	222052	"Silali"	"Kenya"	"Africa-E"	1.15	36.23	1528	"Shield volcano"	"Ar/Ar"	"D7"
	222110	"Suswa"	"Kenya"	"Africa-E"	-1.151	36.357	2356	"Shield volcano"	"Holocene"	"U"
	222161	"Igwisi Hills"	"Tanzania"	"Africa-E"	-4.889	31.933	1146	"Tuff cone"	"Holocene"	"U"
		"Izumbwe-Mpoli"	"Tanzania"	"Africa-E"	-8.93	33.4	1568	"Pyroclastic cone"	"Holocene"	"U"
		"Kilimanjaro"	"Tanzania"	"Africa-E"	-3.07	37.35	5895	"Stratovolcano"	"Holocene"	"U"
	222170	"Kyejo"	"Tanzania"	"Africa-E"	-9.229	33.792	2176	"Stratovolcano"	"Historical"	"D3"
	222120	"Lengai, Ol Doinyo"	"Tanzania"	"Africa-E"	-2.764	35.914	2962	"Stratovolcano"	"Historical"	"D1"
	222160	"Meru"	"Tanzania"	"Africa-E"	-3.244	36.75	4550	"Stratovolcano"	"Historical"	"D2"
	222164	"Ngozi"	"Tanzania"	"Africa-E"	-9.004	33.552	2614	"Caldera"	"Holocene"	"U"
	222166	"Rungwe"	"Tanzania"	"Africa-E"	-9.135	33.668	2953	"Stratovolcano"	"Holocene"	"U"
		"SW Usangu Basin"	"Tanzania"	"Africa-E"	-8.75	33.8	2179	"Lava dome"	"Holocene"	"U"
		"Unnamed"	"Tanzania"	"Africa-E"	-8.63	33.57	0	"Pyroclastic cone"	"Holocene"	"U"
	225005	"Atakor Volcanic Field"	"Algeria"	"Africa-N"	23.33	5.83	2918	"Scoria cones"	"Holocene"	"U"
		"In Ezzane Volc Field"	"Algeria"	"Africa-N"	23	10.833		"Volcanic field"	"Holocene?"	"?"
	225006	"Manzaz Volcanic Field"	"Algeria"	"Africa-N"	23.92	5.83	1672	"Scoria cones"	"Holocene"	"U"
	225004	"Tahalra Volcanic Field"	"Algeria"	"Africa-N"	22.67	5	1467	"Pyroclastic cones"	"Holocene"	"U"
	225021	"Koussi, Emi"	"Chad"	"Africa-N"	19.8	18.53	3415	"Stratovolcano"	"Holocene"	"U"
	225001	"Todra Volcanic Field"	"Chad"	"Africa-N"	17.68	8.5	1780	"Volcanic field"	"Holocene"	"U"
	225009	"Toh, Tarso"	"Chad"	"Africa-N"	21.33	16.33	2000	"Volcanic field"	"Holocene"	"U"
	225010	"Tousside, Tarso"	"Chad"	"Africa-N"	21.03	16.45	3265	"Stratovolcano"	"Holocene"	"U"
	225020	"Voon, Tarso"	"Chad"	"Africa-N"	20.92	17.28	3100	"Stratovolcano"	"Fumarolic"	"U"
		"Haruj"	"Libya"	"Africa-N"	27.25	17.5	1200	"Scoria cone"	"Holocene"	"U"
		"Wau-en-Namus"	"Libya"	"Africa-N"	25.05	17.55	547	"Caldera"	"Holocene?"	"?"
	225002	"Tin Zaouatene Volcanic Field"	"Mali"	"Africa-N"	19.83	2.83	700	"Volcanic field"	"Holocene"	"U"
	225060	"Bayuda Volcanic Field"	"Sudan"	"Africa-N"	18.33	32.75	670	"Cinder cone"	"Radiocarbon"	"D6"
	225040	"Kutum Volcanic Field"	"Sudan"	"Africa-N"	14.57	25.85	1779	"Scoria cone"	"Holocene"	"Unknown"
	225030	"Marra, Jebel"	"Sudan"	"Africa-N"	12.95	24.27	3042	"Volcanic field"	"Radiocarbon"	"D7"
	225050	"Meidob Volcanic Field"	"Sudan"	"Africa-N"	15.32	26.47	2000	"Scoria cone"	"Holocene"	"D7"
		"Umm Arafieb, Jebel"	"Sudan"	"Africa-N"	18.17	33.83	0	"Shield volcano"	"Holocene"	"Unknown"
	221126	"Ardoukoba"	"Djibouti"	"Africa-NE"	11.58	42.47	298	"Fissure vent"	"Historical"	"D1"
	221123	"Mousa Alli"	"Djibouti"	"Africa-NE"	12.469	42.404	1993	"Stratovolcano"	"Holocene"	"U"
	221040	"Alid"	"Eritrea"	"Africa-NE"	14.88	39.92	904	"Stratovolcano"	"Holocene"	"U"
	221125	"Assab Volcanic Field"	"Eritrea"	"Africa-NE"	12.95	42.43	987	"Volcanic field"	"Holocene"	"U"
	221100	"Dubbi"	"Eritrea"	"Africa-NE"	13.579	41.809	1625	"Stratovolcano"	"Historical"	"D3"
	221124	"Gufa"	"Eritrea"	"Africa-NE"	12.55	42.53	600	"Volcanic field"	"Holocene"	"U"
		"Jalua"	"Eritrea"	"Africa-NE"	15.042	39.82	713	"Stratovolcano"	"Holocene"	"U"
	221101	"Nabro"	"Eritrea"	"Africa-NE"	13.37	41.7	2218	"Stratovolcano"	"Holocene"	"Unknown"
	221170	"Adwa"	"Ethiopia"	"Africa-NE"	10.063	40.831	1670	"Stratovolcano"	"Holocene"	"U"
	221110	"Afdera"	"Ethiopia"	"Africa-NE"	13.088	40.853	1250	"Stratovolcano"	"Holocene"	"Unknown"
	221112	"Alayta"	"Ethiopia"	"Africa-NE"	12.888	40.573	1496	"Shield volcano"	"Historical"	"D2"
	221090	"Ale Bagu"	"Ethiopia"	"Africa-NE"	13.512	40.631	988	"Stratovolcano"	"Holocene"	"U"
	221060	"Alu-Dalafilla"	"Ethiopia"	"Africa-NE"	13.793	40.553	578	"Fissure vent"	"Holocene"	"U"
	221270	"Aluto"	"Ethiopia"	"Africa-NE"	7.77	38.78	2335	"Stratovolcano"	"Holocene"	"U"
	221104	"Asavyo"	"Ethiopia"	"Africa-NE"	13.098	41.599	1338	"Shield volcano"	"Holocene"	"U"
	221160	"Ayelu"	"Ethiopia"	"Africa-NE"	10.082	40.702	2145	"Stratovolcano"	"Holocene"	"U"
	221191	"Beru"	"Ethiopia"	"Africa-NE"	8.95	39.75	1100	"Volcanic field"	"Holocene"	"U"
	221291	"Bilate River Field"	"Ethiopia"	"Africa-NE"	7.07	38.1	1700	"Maar"	"Holocene"	"U"
	221220	"Bishoftu Volcanic Field"	"Ethiopia"	"Africa-NE"	8.78	38.98	1850	"Fissure vent"	"Holocene"	"U"
	221071	"Bora Ale"	"Ethiopia"	"Africa-NE"	13.725	40.6	668	"Stratovolcano"	"Holocene"	"U"
	221240	"Bora-Bericcio"	"Ethiopia"	"Africa-NE"	8.221	39.05	2267	"Pumice cone"	"Holocene"	"U"
	221250	"Bora-Bericha-Tullu Moye"	"Ethiopia"	"Africa-NE"	8.211	39.081	2345	"Pumice cone"	"Anthropology"	"D2"
	221107	"Borawli"	"Ethiopia"	"Africa-NE"	13.304	40.987	784	"Stratovolcano"	"Holocene"	"U"
		"Borawli Complex"	"Ethiopia"	"Africa-NE"	11.63	41.45	875	"Lava dome"	"Holocene"	"U"
	221210	"Boset"	"Ethiopia"	"Africa-NE"	8.558	39.475	2447	"Stratovolcano"	"Holocene"	"U"
	221260	"Butajiri-Silti Field"	"Ethiopia"	"Africa-NE"	8.05	38.35	2281	"Fissure vent"	"Holocene"	"U"
	221300	"Chiracha"	"Ethiopia"	"Africa-NE"	6.65	38.12	1636	"Stratovolcano"	"Holocene"	"Unknown"
	221290	"Corbetti"	"Ethiopia"	"Africa-NE"	7.193	38.39	2289	"Caldera"	"Holocene"	"U"
	221113	"Dabbahu"	"Ethiopia"	"Africa-NE"	12.595	40.48	1401	"Stratovolcano"	"Holocene"	"U"
	221114	"Dabbayra"	"Ethiopia"	"Africa-NE"	12.38	40.07	1302	"Shield volcano"	"Holocene"	"U"
		"Dalaffilla"	"Ethiopia"	"Africa-NE"	13.792	40.55	613	"Stratovolcano"	"Holocene"	"U"
	221041	"Dallol"	"Ethiopia"	"Africa-NE"	14.242	40.3	-48	"Explosion crater"	"Historical"	"D2"
	221141	"Dama Ali"	"Ethiopia"	"Africa-NE"	11.28	41.63	1068	"Shield volcano"	"Historical"	"D5"
	221180	"Dofan"	"Ethiopia"	"Africa-NE"	9.35	40.13	1151	"Stratovolcano"	"Holocene"	"U"
	221311	"East Chamo Basin"	"Ethiopia"	"Africa-NE"	5.708	37.713	1150	"Cinder cone"	"Holocene"	"U"
	221252	"East Ziway"	"Ethiopia"	"Africa-NE"	7.874	38.902	1889	"Fissure vent"	"Holocene"	"U"
	221080	"Erta Ale"	"Ethiopia"	"Africa-NE"	13.601	40.666	585	"Shield volcano"	"Historical"	"D1"
	221190	"Fentale"	"Ethiopia"	"Africa-NE"	8.985	39.906	2007	"Stratovolcano"	"Historical"	"D3"
	221150	"Gabillema"	"Ethiopia"	"Africa-NE"	11.08	41.27	1459	"Stratovolcano"	"Holocene"	"U"
	221050	"Gada Ale"	"Ethiopia"	"Africa-NE"	13.975	40.408	287	"Stratovolcano"	"Holocene"	"U"
	221230	"Gedemsa"	"Ethiopia"	"Africa-NE"	8.363	39.172	1909	"Caldera"	"Holocene"	"U"
	221116	"Groppo"	"Ethiopia"	"Africa-NE"	11.816	40.242	852	"Stratovolcano"	"Holocene"	"U"
	221091	"Hayli Gubbi"	"Ethiopia"	"Africa-NE"	13.51	40.722	493	"Shield volcano"	"Holocene"	"U"
	221171	"Hertali"	"Ethiopia"	"Africa-NE"	9.78	40.33	900	"Fissure vent"	"Holocene"	"U"
	221293	"Hobicha Caldera"	"Ethiopia"	"Africa-NE"	6.78	37.83	1800	"Caldera"	"Holocene"	"Unknown"
	221200	"Kone"	"Ethiopia"	"Africa-NE"	8.811	39.695	1380	"Caldera"	"Historical"	"D3"
	221320	"Korath Range"	"Ethiopia"	"Africa-NE"	5.117	35.892	912	"Tuff cone"	"Holocene"	"Unknown"
	221120	"Kurub"	"Ethiopia"	"Africa-NE"	11.88	41.208	625	"Shield volcano"	"Holocene"	"U"
	221172	"Liado Hayk"	"Ethiopia"	"Africa-NE"	9.57	40.28	878	"Maar"	"Holocene"	"Unknown"
	221111	"Ma Alalta"	"Ethiopia"	"Africa-NE"	13.013	40.185	1745	"Stratovolcano"	"Holocene"	"U"
	221102	"Mallahle"	"Ethiopia"	"Africa-NE"	13.27	41.65	1875	"Stratovolcano"	"Holocene"	"Unknown"
	221115	"Manda Hararo"	"Ethiopia"	"Africa-NE"	12.17	40.82	600	"Shield volcano"	"Holocene"	"U"
	221122	"Manda-Inakir"	"Ethiopia"	"Africa-NE"	12.38	42.2	600	"Fissure vent"	"Historical"	"D2"
	221105	"Mat Ala"	"Ethiopia"	"Africa-NE"	13.106	41.161	493	"Shield volcano"	"Holocene"	"U"
	221222	"Melkassa"	"Ethiopia"	"Africa-NE"	8.43	39.35	1765	"Pyroclastic cone"	"Holocene"	"U"
	221294	"Northern Lake Abaya Volcanic Field"	"Ethiopia"	"Africa-NE"	6.76	37.97	1594	"Volcanic field"		"Unknown"
	221280	"Shala"	"Ethiopia"	"Africa-NE"	7.457	38.557	2075	"Stratovolcano"	"Holocene"	"U"
	221103	"Sork Ale"	"Ethiopia"	"Africa-NE"	13.18	41.725	1611	"Stratovolcano"	"Holocene"	"Unknown"
	221106	"Tat Ali"	"Ethiopia"	"Africa-NE"	13.284	41.063	655	"Shield volcano"	"Holocene"	"U"
	221292	"Tepi"	"Ethiopia"	"Africa-NE"	7.42	35.43	2728	"Shield volcano"	"Holocene"	"U"
		"Tosa Sucha"	"Ethiopia"	"Africa-NE"	5.92	37.57	1650	"Cinder cone"	"Holocene"	"U"
		"Unnamed"	"Ethiopia"	"Africa-NE"	8.7	39.63	1300	"Pyroclastic cone"	"Holocene"	"U"
		"Unnamed"	"Ethiopia"	"Africa-NE"	8.62	38.95	1800	"Fissure vent"	"Holocene"	"U"
	221251	"Unnamed"	"Ethiopia"	"Africa-NE"	8.013	39.062	1886	"Fissure vent"	"Holocene"	"U"
	221151	"Yangudi"	"Ethiopia"	"Africa-NE"	10.58	41.042	1383	"Complex volcano"	"Holocene"	"U"
	224010	"Cameroon"	"Cameroon"	"Africa-W"	4.203	9.17	4095	"Stratovolcano"	"Historical"	"D1"
		"Manengouba"	"Cameroon"	"Africa-W"	5.03	9.83	2411	"Stratovolcano"	"Holocene"	"U"
		"Ngaoundere Plateau"	"Cameroon"	"Africa-W"	7.25	13.67	0	"Volcanic field"	"Holocene"	"Unknown"
	224030	"Oku Volcanic Field"	"Cameroon"	"Africa-W"	6.25	10.5	3011	"Maar"	"Radiocarbon"	"D5"
	224011	"Tombel Graben"	"Cameroon"	"Africa-W"	4.758	9.717	500	"Cinder cones"	"Holocene"	"U"
	224002	"San Carlos"	"Equatorial Guinea"	"Africa-W"	3.35	8.52	2260	"Shield volcano"	"Holocene"	"U"
	224003	"San Joaquin"	"Equatorial Guinea"	"Africa-W"	3.35	8.63	2009	"Shield volcano"	"Holocene"	"U"
	224004	"Santa Isabel"	"Equatorial Guinea"	"Africa-W"	3.588	8.762	2999	"Shield volcano"	"Historical"	"D2"
		"Biu Plateau"	"Nigeria"	"Africa-W"	10.75	12	0	"Volcanic field"	"Holocene"	"Unknown"
		"Sao Tome"	"Sao Tome & Principe"	"Africa-W"	0.32	6.72	2024	"Shield volcano"	"Holocene"	"Unknown"
	312090	"Aniakchak"	"United States"	"Alaska Peninsula"	56.88	-158.17	1341	"Caldera"	"Historical"	"D2"
	312080	"Black Peak"	"United States"	"Alaska Peninsula"	56.552	-158.785	1032	"Stratovolcano"	"Radiocarbon"	"D7"
	312110	"Chiginagak"	"United States"	"Alaska Peninsula"	57.135	-156.99	2221	"Stratovolcano"	"Historical"	"D1"
	312050	"Dana"	"United States"	"Alaska Peninsula"	55.641	-161.214	1354	"Stratovolcano"	"Radiocarbon"	"D7"
	312210	"Denison"	"United States"	"Alaska Peninsula"	58.418	-154.449	2287	"Stratovolcano"	"Uncertain"	"Unknown"
	312270	"Douglas"	"United States"	"Alaska Peninsula"	58.855	-153.542	2140	"Stratovolcano"	"Fumarolic"	"U"
	312011	"Dutton"	"United States"	"Alaska Peninsula"	55.183	-162.276	1465	"Stratovolcano"	"Holocene"	"U"
	312020	"Emmons Lake Volcanic Center"	"United States"	"Alaska Peninsula"	55.352	-162.045	1534	"Caldera"	"Holocene"	"U"
	312260	"Fourpeaked"	"United States"	"Alaska Peninsula"	58.77	-153.672	2105	"Stratovolcano"	"Uncertain"	"Unknown"
	312010	"Frosty"	"United States"	"Alaska Peninsula"	55.067	-162.835	1728	"Stratovolcano"	"Holocene"	"U"
	312190	"Griggs"	"United States"	"Alaska Peninsula"	58.354	-155.092	2317	"Stratovolcano"	"Holocene"	"U"
	312250	"Kaguyak"	"United States"	"Alaska Peninsula"	58.611	-154.025	901	"Stratovolcano"	"Holocene"	"D7"
	312170	"Katmai"	"United States"	"Alaska Peninsula"	58.279	-154.953	2047	"Stratovolcano"	"Historical"	"D2"
	312120	"Kialagvik"	"United States"	"Alaska Peninsula"	57.203	-156.745	1677	"Stratovolcano"	"Holocene"	"U"
	312230	"Kukak"	"United States"	"Alaska Peninsula"	58.453	-154.355	2043	"Stratovolcano"	"Fumarolic"	"U"
	312060	"Kupreanof"	"United States"	"Alaska Peninsula"	56.011	-159.797	1895	"Stratovolcano"	"Historical"	"D1"
	312150	"Mageik"	"United States"	"Alaska Peninsula"	58.195	-155.253	2165	"Stratovolcano"	"Historical"	"D2"
	312140	"Martin"	"United States"	"Alaska Peninsula"	58.172	-155.361	1863	"Stratovolcano"	"Historical"	"D2"
	312180	"Novarupta"	"United States"	"Alaska Peninsula"	58.266	-155.159	841	"Caldera"	"Historical"	"D2"
	312030	"Pavlof"	"United States"	"Alaska Peninsula"	55.417	-161.894	2493	"Stratovolcano"	"Historical"	"D1"
	312040	"Pavlof Sister"	"United States"	"Alaska Peninsula"	55.457	-161.854	2142	"Stratovolcano"	"Historical"	"D4"
	312200	"Snowy Mountain"	"United States"	"Alaska Peninsula"	58.336	-154.682	2162	"Stratovolcano"	"Fumarolic"	"U"
	312220	"Steller"	"United States"	"Alaska Peninsula"	58.43	-154.39	2279	"Unknown"	"Uncertain"	"Unknown"
	312051	"Stepovak Bay 2"	"United States"	"Alaska Peninsula"	55.913	-160.041	1323	"Cinder cone"	"Holocene"	"U"
	312052	"Stepovak Bay 3"	"United States"	"Alaska Peninsula"	55.929	-160.002	1555	"Cinder cone"	"Holocene?"	"?"
	312053	"Stepovak Bay 4"	"United States"	"Alaska Peninsula"	55.954	-159.954	1557	"Stratovolcano"	"Pleistocene"	"P"
	312055	"Stepovak Bay Group"	"United States"	"Alaska Peninsula"	55.917	-160.017	1633	"Volcanic field"	"Holocene"	"Unknown"
	312160	"Trident"	"United States"	"Alaska Peninsula"	58.236	-155.1	1864	"Stratovolcano"	"Historical"	"D1"
	312130	"Ugashik-Peulik"	"United States"	"Alaska Peninsula"	57.751	-156.368	1474	"Stratovolcano"	"Historical"	"D3"
	312131	"Ukinrek Maars"	"United States"	"Alaska Peninsula"	57.834	-156.52	91	"Maar"	"Historical"	"D1"
	312132	"Unnamed"	"United States"	"Alaska Peninsula"	57.87	-155.411	402	"Lava dome"	"Holocene"	"U"
	312070	"Veniaminof"	"United States"	"Alaska Peninsula"	56.17	-159.38	2507	"Stratovolcano"	"Historical"	"D1"
	312100	"Yantarni"	"United States"	"Alaska Peninsula"	57.019	-157.185	1345	"Stratovolcano"	"Tephrochronology"	"D7"
	315001	"Buzzard Creek"	"United States"	"Alaska-E"	64.062	-148.433	830	"Tuff rings"	"Radiocarbon"	"D7"
	315030	"Churchill"	"United States"	"Alaska-E"	61.38	-141.75	5005	"Stratovolcano"	"Radiocarbon"	"D6"
		"Gordon"	"United States"	"Alaska-E"	62.13	-143.08	2755	"Cinder cone"	"Holocene"	"U"
		"Sanford"	"United States"	"Alaska-E"	62.22	-144.13	4949	"Shield volcano"	"Holocene"	"Unknown"
	315020	"Wrangell"	"United States"	"Alaska-E"	62.006	-144.017	4278	"Shield volcano"	"Historical"	"D2"
	315070	"Behm Canal-Rudyerd Bay"	"United States"	"Alaska-SE"	55.35	-131	500	"Cinder cone"	"Holocene"	"Unknown"
	315050	"Duncan Canal"	"United States"	"Alaska-SE"	56.5	-133.1	15	"Unknown"	"Holocene"	"U"
	315040	"Edgecumbe"	"United States"	"Alaska-SE"	57.05	-135.75	970	"Stratovolcano"	"Radiocarbon"	"D7"
	315060	"Tlevak Strait-Suemez Island"	"United States"	"Alaska-SE"	55.25	-133.3	50	"Volcanic field"	"Holocene"	"U"
	313010	"Augustine"	"United States"	"Alaska-SW"	59.363	-153.435	1218	"Lava dome"	"Historical"	"D1"
	313050	"Hayes"	"United States"	"Alaska-SW"	61.64	-152.411	3034	"Stratovolcano"	"Radiocarbon"	"D6"
	313020	"Iliamna"	"United States"	"Alaska-SW"	60.032	-153.09	3053	"Stratovolcano"	"Historical"	"D2"
	313030	"Redoubt"	"United States"	"Alaska-SW"	60.485	-152.742	3108	"Stratovolcano"	"Historical"	"D1"
	313040	"Spurr"	"United States"	"Alaska-SW"	61.299	-152.251	3374	"Stratovolcano"	"Historical"	"D1"
		"Espenberg"	"United States"	"Alaska-W"	66.35	-164.33	243	"Volcanic field"	"Tephrochronology"	"D7"
		"Imuruk Lake"	"United States"	"Alaska-W"	65.6	-163.92	610	"Shield volcano"	"Radiocarbon"	"D6"
	314060	"Imuruk Lake"	"United States"	"Alaska-W"	65.517	-163.45	610	"Shield volcano"	"Holocene"	"U"
	314030	"Ingakslugwat Hills"	"United States"	"Alaska-W"	61.43	-164.47	190	"Cinder cone"	"Holocene"	"U"
		"Kookooligit Mountains"	"United States"	"Alaska-W"	63.6	-170.43	673	"Shield volcano"	"Holocene"	"U"
	314040	"St. Michael"	"United States"	"Alaska-W"	63.45	-162.12	715	"Shield volcano"	"Anthropology"	"U"
	314010	"St. Paul Island"	"United States"	"Alaska-W"	57.167	-170.213	203	"Shield"	"Holocene"	"D7"
	311320	"Akutan"	"United States"	"Aleutian Is"	54.134	-165.986	1303	"Stratovolcano"	"Historical"	"D1"
	311390	"Amak"	"United States"	"Aleutian Is"	55.418	-163.147	547	"Stratovolcano"	"Historical"	"D4"
	311190	"Amukta"	"United States"	"Aleutian Is"	52.5	-171.252	1066	"Stratovolcano"	"Historical"	"D1"
	311160	"Atka Volcanic Complex"	"United States"	"Aleutian Is"	52.331	-174.139	1518	"Stratovolcano"	"Historical"	"D1"
	311100	"Bobrof"	"United States"	"Aleutian Is"	51.91	-177.438	738	"Stratovolcano"	"Holocene"	"Unknown"
	311300	"Bogoslof"	"United States"	"Aleutian Is"	53.93	-168.03	150	"Submarine volcano"	"Historical"	"D1"
	311010	"Buldir"	"United States"	"Aleutian Is"	52.35	175.911	656	"Stratovolcano"	"Holocene"	"U"
	311230	"Carlisle"	"United States"	"Aleutian Is"	52.894	-170.054	1620	"Stratovolcano"	"Historical"	"D3"
	311200	"Chagulak"	"United States"	"Aleutian Is"	52.577	-171.13	1142	"Stratovolcano"	"Holocene"	"U"
	311240	"Cleveland"	"United States"	"Aleutian Is"	52.825	-169.944	1730	"Stratovolcano"	"Historical"	"D1"
	311040	"Davidof"	"United States"	"Aleutian Is"	51.97	178.33	328	"Stratovolcano"	"Holocene"	"Unknown"
	311350	"Fisher"	"United States"	"Aleutian Is"	54.65	-164.43	1112	"Stratovolcano"	"Historical"	"D3"
	311070	"Gareloi"	"United States"	"Aleutian Is"	51.79	-178.794	1573	"Stratovolcano"	"Historical"	"D1"
	311120	"Great Sitkin"	"United States"	"Aleutian Is"	52.076	-176.13	1740	"Stratovolcano"	"Historical"	"D1"
	311220	"Herbert"	"United States"	"Aleutian Is"	52.742	-170.111	1280	"Stratovolcano"	"Holocene"	"U"
	311370	"Isanotski"	"United States"	"Aleutian Is"	54.765	-163.723	2446	"Stratovolcano"	"Historical"	"D3"
	311260	"Kagamil"	"United States"	"Aleutian Is"	52.974	-169.72	893	"Stratovolcano"	"Historical"	"D2"
	311110	"Kanaga"	"United States"	"Aleutian Is"	51.923	-177.168	1307	"Stratovolcano"	"Historical"	"D1"
	311130	"Kasatochi"	"United States"	"Aleutian Is"	52.177	-175.508	314	"Stratovolcano"	"Historical"	"D1"
	311020	"Kiska"	"United States"	"Aleutian Is"	52.103	177.602	1220	"Stratovolcano"	"Historical"	"D1"
	311140	"Koniuji"	"United States"	"Aleutian Is"	52.22	-175.13	273	"Stratovolcano"	"Uncertain"	"Unknown"
	311161	"Korovin"	"United States"	"Aleutian Is"	52.381	-174.166	1518	"Stratovolcano(es)"		"D1"
	311050	"Little Sitkin"	"United States"	"Aleutian Is"	51.95	178.543	1174	"Stratovolcano"	"Historical"	"D3"
	311310	"Makushin"	"United States"	"Aleutian Is"	53.891	-166.923	1800	"Stratovolcano"	"Historical"	"D1"
	311111	"Moffett"	"United States"	"Aleutian Is"	51.944	-176.747	1196	"Stratovolcano"	"Holocene"	"U"
	311290	"Okmok"	"United States"	"Aleutian Is"	53.43	-168.13	1073	"Shield volcano"	"Historical"	"D1"
	311280	"Recheschnoi"	"United States"	"Aleutian Is"	53.157	-168.539	1984	"Stratovolcano"	"Holocene"	"U"
	311380	"Roundtop"	"United States"	"Aleutian Is"	54.8	-163.589	1871	"Stratovolcano"	"Holocene"	"U"
	311180	"Seguam"	"United States"	"Aleutian Is"	52.315	-172.51	1054	"Stratovolcano"	"Historical"	"D1"
	311030	"Segula"	"United States"	"Aleutian Is"	52.015	178.136	1160	"Stratovolcano"	"Holocene"	"U"
	311060	"Semisopochnoi"	"United States"	"Aleutian Is"	51.93	179.58	1221	"Stratovolcano"	"Historical"	"D1"
		"Sergief"	"United States"	"Aleutian Is"	52.03	-174.93	560	"Stratovolcano"	"Uncertain"	"Unknown"
	311360	"Shishaldin"	"United States"	"Aleutian Is"	54.756	-163.97	2857	"Stratovolcano"	"Historical"	"D1"
	311090	"Takawangha"	"United States"	"Aleutian Is"	51.873	-178.006	1449	"Stratovolcano"	"Holocene"	"U"
	311241	"Tana"	"United States"	"Aleutian Is"	52.83	-169.77	1170	"Stratovolcanoes"	"Holocene"	"U"
	311080	"Tanaga"	"United States"	"Aleutian Is"	51.885	-178.146	1806	"Stratovolcano"	"Historical"	"D2"
	311250	"Uliaga"	"United States"	"Aleutian Is"	53.065	-169.77	888	"Stratovolcano"	"Holocene"	"Unknown"
		"Unnamed"	"United States"	"Aleutian Is"	52	-173.5	0	"Submarine volcano"	"Hydrophonic"	"D1"
	311270	"Vsevidof"	"United States"	"Aleutian Is"	53.13	-168.693	2149	"Stratovolcano"	"Historical"	"D3"
	311340	"Westdahl"	"United States"	"Aleutian Is"	54.516	-164.65	1563	"Stratovolcano"	"Historical"	"D1"
	311210	"Yunaska"	"United States"	"Aleutian Is"	52.639	-170.632	550	"Shield volcano"	"Historical"	"D2"
	260010	"Barren Island"	"India"	"Andaman Is-Indian O"	12.278	93.858	354	"Stratovolcano"	"Historical"	"D1"
	260001	"Narcondum"	"India"	"Andaman Is-Indian O"	13.43	94.28	710	"Stratovolcano"	"Holocene"	"U"
	390023	"Andrus"	"Antarctica"	"Antarctica"	-75.8	-132.33	2978	"Shield volcano"	"Holocene"	"Unknown"
	390022	"Berlin"	"Antarctica"	"Antarctica"	-76.05	-136	3478	"Shield volcano"	"Fumarolic"	"U"
	390040	"Bridgeman Island"	"Antarctica"	"Antarctica"	-62.063	-56.713	240	"Stratovolcano"	"Holocene"	"Unknown"
	390080	"Bristol Island"	"Antarctica"	"Antarctica"	-59.017	-26.533	1100	"Stratovolcano"	"Historical"	"D2"
	390010	"Buckle Island"	"Antarctica"	"Antarctica"	-66.78	163.25	1239	"Stratovolcano"	"Historical"	"D3"
	390100	"Candlemas Island"	"Antarctica"	"Antarctica"	-57.08	-26.67	550	"Stratovolcano"	"Historical"	"D2"
	390030	"Deception Island"	"Antarctica"	"Antarctica"	-62.957	-60.637	602	"Caldera"	"Historical"	"D1"
	390020	"Erebus"	"Antarctica"	"Antarctica"	-77.53	167.17	3794	"Stratovolcano"	"Historical"	"D1"
	390110	"Hodson"	"Antarctica"	"Antarctica"	-56.712	-27.176	835	"Stratovolcano"	"Holocene"	"U"
	390028	"Hudson Mountains"	"Antarctica"	"Antarctica"	-74.33	-99.42	749	"Stratovolcano"	"Uncertain"	"Unknown"
	390120	"Leskov Island"	"Antarctica"	"Antarctica"	-56.656	-28.14	190	"Stratovolcano"	"Fumarolic"	"U"
		"Lindenberg Island"	"Antarctica"	"Antarctica"	-65.03	-60.05	368	"Pyroclastic cone"	"Uncertain"	"Unknown"
	390015	"Melbourne"	"Antarctica"	"Antarctica"	-74.35	164.7	2732	"Stratovolcano"	"Tephrochronology"	"D4"
	390847	"Melville"	"Antarctica"	"Antarctica"	-62.02	-57.67	549	"Stratovolcano"		"Unknown"
	390081	"Montagu Island"	"Antarctica"	"Antarctica"	-58.445	-26.374	1370	"Shield volcano"	"Historical"	"D1"
	390017	"Morning"	"Antarctica"	"Antarctica"	-78.5	163.53	2723	"Shield volcano"	"Holocene"	"U"
	390829	"Mount Haddington Volc Field"	"Antarctica"	"Antarctica"	-64.15	-57.75	1630	"Shield"	"Holocene"	"Unknown"
	390041	"Paulet"	"Antarctica"	"Antarctica"	-63.579	-55.78	353	"Cinder cone"	"Holocene"	"U"
	390031	"Penguin Island"	"Antarctica"	"Antarctica"	-62.1	-57.93	180	"Stratovolcano"	"Lichenometry"	"D2"
	390029	"Peter I Island"	"Antarctica"	"Antarctica"	-68.85	-90.58	1640	"Shield volcano"	"Holocene"	"U"
	390013	"Pleiades, The"	"Antarctica"	"Antarctica"	-72.67	165.5	3040	"Stratovolcano"	"K-Ar"	"D7"
	390140	"Protector Seamounts"	"Antarctica"	"Antarctica"	-55.912	-28.167	-55	"Submarine volcano"	"Historical"	"D2"
	390021	"Royal Society Range"	"Antarctica"	"Antarctica"	-78.25	163.33	3000	"Cinder cone"	"Holocene"	"Unknown"
	390090	"Saunders"	"Antarctica"	"Antarctica"	-57.8	-26.483	843	"Stratovolcano"	"Historical"	"D3"
	390050	"Seal Nunataks Group"	"Antarctica"	"Antarctica"	-65.03	-60.05	368	"Pyroclastic cone"	"Historical"	"D3"
	390025	"Siple"	"Antarctica"	"Antarctica"	-73.43	-126.67	3110	"Shield volcano"	"Holocene"	"Unknown"
	390070	"Southern Thule"	"Antarctica"	"Antarctica"	-59.442	-27.225	1075	"Stratovolcano"	"Historical"	"D1"
	390012	"Sturge Island"	"Antarctica"	"Antarctica"	-67.4	164.83	1167	"Stratovolcano"	"Uncertain"	"Unknown"
	390027	"Takahe"	"Antarctica"	"Antarctica"	-76.28	-112.08	3460	"Shield volcano"	"Ice Core"	"D7"
	390026	"Toney Mountain"	"Antarctica"	"Antarctica"	-75.8	-115.83	3595	"Shield volcano"	"Holocene"	"Unknown"
		"Unnamed"	"Antarctica"	"Antarctica"	-73.45	164.58	2987	"Scoria cone"	"Holocene"	"Unknown"
	390016	"Unnamed"	"Antarctica"	"Antarctica"	-76.83	163	-500	"Submarine volcano"	"Holocene"	"Unknown"
	390024	"Waesche"	"Antarctica"	"Antarctica"	-77.17	-126.88	3292	"Shield volcano"	"Holocene"	"Unknown"
	390011	"Young Island"	"Antarctica"	"Antarctica"	-66.42	162.47	1340	"Stratovolcano"	"Fumarolic"	"U"
	390130	"Zavodovski"	"Antarctica"	"Antarctica"	-56.3	-27.57	551	"Stratovolcano"	"Historical"	"D3"
		"Ormus Islands"	"Indian Ocean"	"Arabia-S"	26	57	0	"Submarine volcano"	"Holocene"	"D2"
		"Unnamed"	"Indian Ocean"	"Arabia-S"	12.25	45	0	"Submarine volcano"	"Uncertain"	"Unknown"
	231090	"Arhab, Harra of"	"Yemen"	"Arabia-S"	15.603	44.098	3100	"Volcanic field"	"Historical"	"D6"
	231170	"Balhaf-Bir Ali Volcanic Field"	"Yemen"	"Arabia-S"	14.067	48.3	604	"Volcanic field"	"Holocene"	"U"
	231180	"Bir Borhut"	"Yemen"	"Arabia-S"	15.515	50.935	464	"Volcanic field"	"Holocene"	"Unknown"
	231120	"Dhamar, Harras of"	"Yemen"	"Arabia-S"	14.57	44.67	3500	"Volcanic field"	"Historical"	"D2"
	231110	"Haylan, Jabal"	"Yemen"	"Arabia-S"	15.4	45.1	1550	"Volcanic field"	"Anthropology"	"D7"
	231100	"Marha, Jabal el-"	"Yemen"	"Arabia-S"	15.245	44.236	2506	"Tuff cone"	"Holocene"	"U"
	231160	"Sawad, Harra Es-"	"Yemen"	"Arabia-S"	13.58	46.12	1737	"Volcanic field"	"Historical"	"D6"
	231001	"Ash Shaam, Harrat"	"Saudi Arabia"	"Arabia-W"	32.333	37.583	1100	"Volcanic field"	"Holocene"	"U"
	231072	"Birk, Harrat al"	"Saudi Arabia"	"Arabia-W"	18.37	41.63	587	"Volcanic field"	"Holocene"	"U"
	231050	"Ithnayn, Harrat"	"Saudi Arabia"	"Arabia-W"	26.58	40.2	1625	"Volcanic field"	"Holocene"	"U"
	231060	"Khaybar, Harrat"	"Saudi Arabia"	"Arabia-W"	25.5	40	2093	"Volcanic field"	"Historical"	"D6"
	231071	"Kishb, Harrat"	"Saudi Arabia"	"Arabia-W"	22.8	41.38	1475	"Volcanic field"	"Holocene"	"U"
	231040	"Lunayyir, Harrat"	"Saudi Arabia"	"Arabia-W"	25.17	37.75	1370	"Volcanic field"	"Historical"	"D6"
	231010	"Rahah, Harrat ar"	"Saudi Arabia"	"Arabia-W"	27.8	36.17	1950	"Volcanic field"	"Anthropology"	"U"
	231070	"Rahat, Harrat"	"Saudi Arabia"	"Arabia-W"	23.08	39.78	1744	"Volcanic field"	"Historical"	"D6"
	231020	"Uwayrid, Harrat"	"Saudi Arabia"	"Arabia-W"	27.08	37.25	1920	"Volcanic field"	"Anthropology"	"D6"
	231080	"Yar, Jabal"	"Saudi Arabia"	"Arabia-W"	17.05	42.83	305	"Volcanic field"	"Historical"	"D3"
	377020	"East Gakkel Ridge at 85°E"	"Arctic Ocean"	"Arctic Ocean"	85.608	85.25	-3800	"Submarine volcano"	"Holocene"	"U"
		"Unnamed"	"Arctic Ocean"	"Arctic Ocean"	88.27	-65.6	-1500	"Submarine volcano"	"Historical"	"D2"
	355180	"Antofagasta Volcanic Field"	"Argentina"	"Argentina"	-26.12	-67.4	3495	"Scoria cones"	"Holocene"	"U"
	358024	"Apagado"	"Argentina"	"Argentina"	-41.88	-72.58	1210	"Cinder cone"	"Holocene"	"U"
	355160	"Aracar"	"Argentina"	"Argentina"	-24.29	-67.783	6095	"Stratovolcano"	"Uncertain"	"?"
	357023	"Atuel, Caldera del"	"Argentina"	"Argentina"	-34.592	-69.921	5189	"Caldera"	"Holocene"	"U"
	357102	"Blanca, Laguna"	"Argentina"	"Argentina"	-39.02	-70.37	1700	"Volcanic field"		"Unknown"
	355210	"Blanco, Cerro"	"Argentina"	"Argentina"	-26.766	-67.746	4670	"Caldera"	"Holocene"	"U"
	355190	"Condor, El"	"Argentina"	"Argentina"	-26.632	-68.361	6373	"Stratovolcano"	"Holocene"	"U"
	357067	"Domuyo"	"Argentina"	"Argentina"	-36.638	-70.432	4702	"Stratovolcano"	"Holocene"	"Unknown"
	355124	"Falso Azufre"	"Argentina"	"Argentina"	-26.8	-68.37	5906	"Scoria cone"	"Holocene"	"U"
	357123	"Huanquihue Group"	"Argentina"	"Argentina"	-39.887	-71.58	2189	"Pyroclastic cone"	"Holocene"	"U"
	355123	"Nevada, Sierra"	"Argentina"	"Argentina"	-26.48	-68.58	6173	"Stratovolcano"	"Holocene"	"U"
	357066	"Payun Matru"	"Argentina"	"Argentina"	-36.422	-69.241	3715	"Shield volcano"	"Holocene"	"U"
	355200	"Peinado"	"Argentina"	"Argentina"	-26.623	-68.116	5741	"Stratovolcano"	"Holocene"	"U"
		"Puesto Cortaderas"	"Argentina"	"Argentina"	-37.567	-69.617	970	"Pyroclastic cone"	"Holocene"	"U"
	355107	"Pular"	"Argentina"	"Argentina"	-24.188	-68.054	6233	"Stratovolcano"	"Historical"	"D1"
	357024	"Risco Plateado"	"Argentina"	"Argentina"	-34.917	-69.981	4999	"Stratovolcano"	"Holocene?"	"?"
	355131	"Solo, El"	"Argentina"	"Argentina"	-27.105	-68.713	6205	"Complex volcano"	"Holocene"	"U"
	355220	"Tipas"	"Argentina"	"Argentina"	-27.196	-68.561	6658	"Complex volcano"	"Holocene"	"U"
	357081	"Trolon"	"Argentina"	"Argentina"	-37.738	-70.906	2360	"Lava domes"	"Holocene?"	"?"
		"Tromen"	"Argentina"	"Argentina"	-37.142	-70.03	3978	"Stratovolcano"	"Holocene"	"U"
	357072	"Tromen Volcanic Plateau"	"Argentina"	"Argentina"	-37.144	-70.033	4114	"Pyroclastic cone"	"Holocene"	"U"
	355150	"Tuzgle"	"Argentina"	"Argentina"	-24.05	-66.48	5486	"Stratovolcano"	"Holocene?"	"?"
	355161	"Unnamed"	"Argentina"	"Argentina"	-25.078	-68.266	4652	"Pyroclastic cone"	"Holocene?"	"?"
		"Viedma, Volcan"	"Argentina"	"Argentina"	-49.358	-73.28	1300	"Subglacial volcano"	"Historical"	"D1"
	214060	"Aragats"	"Armenia"	"Armenia"	40.53	44.2	4095	"Stratovolcano"	"Holocene"	"U"
	214070	"Ghegham Volcanic Ridge"	"Armenia"	"Armenia"	40.283	45	3597	"Volcanic field"	"Holocene"	"U"
	214090	"Porak"	"Armenia"	"Armenia"	40.028	45.74	3029	"Stratovolcano"	"Anthropology"	"D7"
	214100	"Tskhouk-Karckar"	"Armenia"	"Armenia"	39.742	45.992	3139	"Pyroclastic cones"	"Tephrochronology"	"D7"
	214080	"Vaiyots-Sar"	"Armenia"	"Armenia"	39.797	45.497	2575	"Unknown"	"Holocene"	"U"
	385030	"Romanche Fracture Zone"	"Atlantic Ocean"	"Atlantic-C"	-0.433	-19.596	-1528	"Submarine volcano"	"Historical"	"D3"
		"Unnamed"	"Atlantic Ocean"	"Atlantic-C"	7	-21.83	-1415	"Submarine volcano"	"Uncertain"	"Unknown"
		"Unnamed"	"Atlantic Ocean"	"Atlantic-C"	4.2	-21.45	-2900	"Submarine volcano"	"Uncertain"	"Unknown"
		"Unnamed"	"Atlantic Ocean"	"Atlantic-C"	-3.5	-24.5	-5300	"Submarine volcano"	"Uncertain"	"Unknown"
	381040	"Pico Fracture Zone"	"Atlantic Ocean"	"Atlantic-N"	38.75	-38.08	-4200	"Submarine volcano"	"Historical"	"D3"
		"Unnamed"	"Atlantic Ocean"	"Atlantic-N"	66	-27.75	-108	"Submarine volcano"	"Uncertain"	"D4"
		"Unnamed"	"Atlantic Ocean"	"Atlantic-N"	49	-34.5	-1650	"Submarine volcano"	"Historical"	"D3"
		"Unnamed"	"Atlantic Ocean"	"Atlantic-N"	39.95	-25.83	-2835	"Submarine volcano"	"Uncertain"	"Unknown"
	371032	"Fagradalsfjall"	"Iceland"	"Atlantic-N"	63.895	-22.258	250	"Fissure vent"	"Holocene"	"D1"
	376010	"Jan Mayen"	"Jan Mayen"	"Atlantic-N-Jan Mayen"	71.082	-8.155	2197	"Stratovolcano"	"Historical"	"D1"
	385050	"Ascension"	"Atlantic Ocean"	"Atlantic-S"	-7.95	-14.37	858	"Stratovolcano"	"Holocene"	"U"
		"Thompson Island"	"Atlantic Ocean"	"Atlantic-S"	-53.93	5.5	0	"Submarine volcano"	"Uncertain"	"Unknown"
		"Trindade"	"Atlantic Ocean"	"Atlantic-S"	-20.514	-29.331	600	"Stratovolcano"	"Holocene"	"U"
	386010	"Tristan da Cunha"	"Atlantic Ocean"	"Atlantic-S"	-37.092	-12.28	2060	"Stratovolcano"	"Historical"	"D2"
	385052	"Walvis Ridge at 33°S"	"Atlantic Ocean"	"Atlantic-S"	-32.958	-5.22	-1200	"Submarine"		"D1"
	386020	"Bouvet"	"Bouvet I."	"Atlantic-S"	-54.408	3.351	741	"Shield volcano"	"Magnetism"	"D7"
	386011	"Nightingale Island"	"United Kingdom"	"Atlantic-S"	-37.42	-12.48	365	"Stratovolcano"	"Historical"	"D1"
	333060	"Macdonald"	"Antarctica"	"Austral Is-C Pacific"	-28.98	-140.25	-39	"Submarine volcano"	"Historical"	"D1"
	259804	"McBride Volcanic Province"	"Australia"	"Australia"	-18.367	144.567	1020	"Volcanic field"	"Ar/Ar"	"D7"
	259010	"Newer Volcanics Province"	"Australia"	"Australia"	-37.77	142.5	1011	"Shield volcano"	"Radiocarbon"	"D7"
	382090	"Agua de Pau"	"Portugal"	"Azores"	37.77	-25.47	947	"Stratovolcano"	"Historical"	"D5"
	382002	"Corvo"	"Portugal"	"Azores"	39.699	-31.111	718	"Stratovolcano"	"Holocene"	"U"
	382070	"Don Joao de Castro Bank"	"Portugal"	"Azores"	38.23	-26.63	-13	"Submarine volcano"	"Historical"	"D4"
	382010	"Fayal"	"Portugal"	"Azores"	38.576	-28.713	1041	"Stratovolcano"	"Historical"	"D2"
	382001	"Flores"	"Portugal"	"Azores"	39.462	-31.216	914	"Stratovolcano"	"Radiocarbon"	"D7"
	382100	"Furnas"	"Portugal"	"Azores"	37.77	-25.32	805	"Stratovolcano"	"Historical"	"D5"
	382040	"Graciosa"	"Portugal"	"Azores"	39.02	-27.97	402	"Stratovolcano"	"Holocene"	"U"
	382120	"Madeira"	"Portugal"	"Azores"	32.73	-16.97	1862	"Shield volcano"	"Radiocarbon"	"D7"
	382110	"Monaco Bank"	"Portugal"	"Azores"	37.6	-25.88	-197	"Submarine volcano"	"Historical"	"D2"
	382020	"Pico"	"Portugal"	"Azores"	38.47	-28.4	2351	"Stratovolcano"	"Historical"	"D4"
	382081	"Picos Fissural Volcanic System"	"Portugal"	"Azores"	37.78	-25.67	350	"Pyroclastic cone"	"Historical"	"D5"
	382030	"Sao Jorge"	"Portugal"	"Azores"	38.65	-28.08	1053	"Fissure vent"	"Historical"	"D2"
	382080	"Sete Cidades"	"Portugal"	"Azores"	37.865	-25.785	842	"Stratovolcano"	"Historical"	"D3"
	382050	"Terceira"	"Portugal"	"Azores"	38.73	-27.32	1023	"Stratovolcano"	"Historical"	"D1"
	265040	"Wurlali"	"Indonesia"	"Banda Sea"	-7.125	128.675	868	"Stratovolcano"	"Historical"	"D3"
	265090	"Banda Api"	"Pacific Ocean"	"Banda Sea"	-4.523	129.881	596	"Caldera"	"Historical"	"D1"
		"Emperor of China"	"Pacific Ocean"	"Banda Sea"	-6.62	124.22	-2850	"Submarine volcano"	"Uncertain"	"Unknown"
	265080	"Manuk"	"Pacific Ocean"	"Banda Sea"	-5.543	130.303	257	"Stratovolcano"	"Fumarolic"	"U"
		"Nieuwerkerk"	"Pacific Ocean"	"Banda Sea"	-6.6	124.675	-2285	"Submarine volcano"	"Uncertain"	"Unknown"
	265060	"Nila"	"Pacific Ocean"	"Banda Sea"	-6.73	129.5	781	"Stratovolcano"	"Historical"	"D1"
	265070	"Serua"	"Pacific Ocean"	"Banda Sea"	-6.312	130.017	608	"Stratovolcano"	"Historical"	"D2"
	265050	"Teon"	"Pacific Ocean"	"Banda Sea"	-6.976	129.144	728	"Stratovolcano"	"Historical"	"D2"
	265030	"Wetar"	"Pacific Ocean"	"Banda Sea"	-6.642	126.65	282	"Stratovolcano"	"Historical"	"D5"
	355036	"Jatun Mundo Quri Warani"	"Bolivia"	"Bolivia"	-19.78	-66.48	5438	"Lava domes"	"Holocene?"	"?"
	355035	"Jayu Khota, Laguna"	"Bolivia"	"Bolivia"	-19.463	-67.432	3650	"Maars"	"Holocene"	"U"
	355042	"Pampa Luxsar"	"Bolivia"	"Bolivia"	-20.85	-68.2	5543	"Volcanic field"	"Holocene"	"U"
	355012	"Parinacota"	"Bolivia"	"Bolivia"	-18.166	-69.142	6336	"Stratovolcano"	"Holocene"	"Unknown"
	355021	"Tambo Quemado"	"Bolivia"	"Bolivia"	-18.62	-68.75	4215	"Maar"	"Holocene"	"Unknown"
		"Yumia, Cerro"	"Bolivia"	"Bolivia"	-21.5	-67.5	4050	"Cone"	"Holocene"	"Unknown"
		"Bombalai"	"Malaysia"	"Borneo"	4.4	117.88	531	"Pyroclastic cone"	"Holocene"	"Unknown"
	255020	"Bagana"	"Papua New Guinea"	"Bougainville-SW Paci"	-6.137	155.196	1855	"Lava cone"	"Historical"	"D1"
	255010	"Balbi"	"Papua New Guinea"	"Bougainville-SW Paci"	-5.916	155.001	2715	"Stratovolcano"	"Holocene"	"U"
	255011	"Billy Mitchell"	"Papua New Guinea"	"Bougainville-SW Paci"	-6.09	155.225	1544	"Pyroclastic shield"	"Radiocarbon"	"D5"
	255030	"Loloru"	"Papua New Guinea"	"Bougainville-SW Paci"	-6.52	155.62	1887	"Pyroclastic shield"	"Radiocarbon"	"D7"
	255021	"Takuan Group"	"Papua New Guinea"	"Bougainville-SW Paci"	-6.442	155.608	2210	"Volcanic complex"	"Holocene"	"U"
	255000	"Tore"	"Papua New Guinea"	"Bougainville-SW Paci"	-5.835	154.935	2175	"Lava cone"	"Holocene"	"U"
	320020	"Alligator Lake"	"Canada"	"Canada"	60.42	-135.42	2217	"Volcanic field"	"Holocene"	"U"
	320030	"Atlin Volcanic Field"	"Canada"	"Canada"	59.708	-133.358	1880	"Cinder cone"	"Historical"	"D3"
	320170	"Bridge River Cones"	"Canada"	"Canada"	50.8	-123.4	2500	"Volcanic field"	"Holocene"	"U"
	320811	"Cayley Volcanic Field"	"Canada"	"Canada"	50.12	-123.28	2375	"Volcanic field"		"Unknown"
	320110	"Crow Lagoon"	"Canada"	"Canada"	54.7	-130.23	335	"Pyroclastic cone"	"Holocene"	"U"
	320060	"Edziza"	"Canada"	"Canada"	57.72	-130.63	2786	"Stratovolcano"	"Radiocarbon"	"D6"
	320010	"Fort Selkirk"	"Canada"	"Canada"	62.93	-137.38	1239	"Volcanic field"	"Holocene"	"U"
	320200	"Garibaldi"	"Canada"	"Canada"	49.85	-123	2678	"Stratovolcano"	"Radiocarbon"	"D7"
	320190	"Garibaldi Lake"	"Canada"	"Canada"	49.933	-123	2316	"Volcanic field"	"Holocene"	"U"
	320040	"Heart Peaks"	"Canada"	"Canada"	58.6	-131.97	2012	"Shield volcano"	"Holocene"	"U"
	320080	"Hoodoo Mountain"	"Canada"	"Canada"	56.78	-131.28	1850	"Subglacial volcano"	"Holocene"	"U"
	320090	"Iskut-Unuk River Cones"	"Canada"	"Canada"	56.567	-130.75	1880	"Cinder cone"	"Radiocarbon"	"D3"
	320050	"Level Mountain"	"Canada"	"Canada"	58.42	-131.35	2164	"Shield volcano"	"Holocene"	"U"
	320180	"Meager"	"Canada"	"Canada"	50.63	-123.5	2680	"Complex volcano"	"Radiocarbon"	"D7"
	320120	"Milbanke Sound Group"	"Canada"	"Canada"	52.498	-128.723	233	"Cinder cone"	"Holocene"	"U"
	320140	"Nazko"	"Canada"	"Canada"	52.928	-123.732	1238	"Cinder cone"	"Radiocarbon"	"D7"
		"Satah Mountain"	"Canada"	"Canada"	52.47	-124.7	1921	"Volcanic field"	"Holocene"	"U"
	320160	"Silverthrone"	"Canada"	"Canada"	51.518	-126.113	2860	"Caldera"	"Holocene"	"U"
	320070	"Spectrum Range"	"Canada"	"Canada"	57.43	-130.68	2430	"Shield volcano"	"Holocene"	"U"
	320100	"Tseax River Cone"	"Canada"	"Canada"	55.111	-128.899	612	"Pyroclastic cone"	"Radiocarbon"	"D4"
	320031	"Tuya Volcanic Field"	"Canada"	"Canada"	59.37	-130.58	2123	"Volcanic field"	"Holocene"	"U"
	320150	"Wells Gray-Clearwater"	"Canada"	"Canada"	52.33	-120.57	2576	"Cinder cone"	"Dendrochronology"	"D5"
	383050	"Fuerteventura"	"Spain"	"Canary Is"	28.358	-14.02	529	"Fissure vent"	"Holocene"	"U"
	383040	"Gran Canaria"	"Spain"	"Canary Is"	28	-15.58	1950	"Fissure vent"	"Radiocarbon"	"D7"
	383020	"Hierro"	"Spain"	"Canary Is"	27.73	-18.03	1500	"Shield volcano"	"Historical"	"D4"
	383010	"La Palma"	"Spain"	"Canary Is"	28.57	-17.83	2426	"Stratovolcano"	"Historical"	"D1"
	383060	"Lanzarote"	"Spain"	"Canary Is"	29.03	-13.63	670	"Fissure vent"	"Historical"	"D3"
	383030	"Tenerife"	"Spain"	"Canary Is"	28.271	-16.641	3715	"Stratovolcano"	"Historical"	"D2"
	384020	"Brava"	"Cape Verde"	"Cape Verde Is"	14.851	-24.704	956	"Stratovolcano"	"Holocene"	"U"
	384010	"Fogo"	"Cape Verde"	"Cape Verde Is"	14.95	-24.35	2829	"Stratovolcano"	"Historical"	"D1"
		"Santo Antao"	"Cape Verde"	"Cape Verde Is"	17.07	-25.17	1979	"Stratovolcano"	"Holocene"	"U"
	355125	"Incahuasi, Nevado de"	"Argentina"	"Chile"	-27.033	-68.296	6638	"Complex volcano"	"Holocene"	"U"
	357122	"Lanin"	"Argentina"	"Chile-C"	-39.637	-71.502	3776	"Stratovolcano"	"Holocene"	"U"
	357021	"Maipo"	"Argentina"	"Chile-C"	-34.164	-69.832	5323	"Caldera"	"Historical"	"D2"
	357020	"San Jose"	"Argentina"	"Chile-C"	-33.789	-69.895	6070	"Stratovolcano"	"Historical"	"D2"
	357153	"Antillanca Volcanic Complex"	"Chile"	"Chile-C"	-40.783	-72.15	1979	"Stratovolcano"	"Holocene"	"U"
	357080	"Antuco"	"Chile"	"Chile-C"	-37.406	-71.349	2979	"Stratovolcano"	"Historical"	"D3"
	357060	"Azul, Cerro"	"Chile"	"Chile-C"	-35.653	-70.761	3788	"Stratovolcano"	"Historical"	"D1"
	357064	"Blancas, Lomas"	"Chile"	"Chile-C"	-36.286	-71.009	2268	"Stratovolcano"	"Holocene"	"U"
	357112	"Caburgua-Huelemolle"	"Chile"	"Chile-C"	-39.25	-71.75	1652	"Cinder cone"	"Tephrochronology"	"D7"
	357042	"Calabozos"	"Chile"	"Chile-C"	-35.558	-70.496	3508	"Caldera"	"Holocene"	"U"
	357091	"Callaqui"	"Chile"	"Chile-C"	-37.92	-71.45	3164	"Stratovolcano"	"Historical"	"D1"
	357140	"Carran-Los Venados"	"Chile"	"Chile-C"	-40.35	-72.07	1114	"Pyroclastic cone"	"Historical"	"D1"
	357070	"Chillan, Nevados de"	"Chile"	"Chile-C"	-36.868	-71.378	3180	"Stratovolcano"	"Historical"	"D1"
	357090	"Copahue"	"Chile"	"Chile-C"	-37.856	-71.183	2953	"Stratovolcano"	"Historical"	"D1"
	357050	"Descabezado Grande"	"Chile"	"Chile-C"	-35.58	-70.75	3953	"Stratovolcano"	"Historical"	"D2"
	357041	"Infiernillo"	"Chile"	"Chile-C"	-35.123	-69.9	3007	"Lava dome"	"Holocene"	"U"
	357110	"Llaima"	"Chile"	"Chile-C"	-38.692	-71.729	3125	"Stratovolcano"	"Historical"	"D1"
	357063	"Longavi, Nevado de"	"Chile"	"Chile-C"	-36.196	-71.164	3175	"Stratovolcano"	"Holocene"	"U"
	357100	"Lonquimay"	"Chile"	"Chile-C"	-38.379	-71.586	2832	"Stratovolcano"	"Historical"	"D1"
	357092	"Mariñaqui, Laguna"	"Chile"	"Chile-C"	-38.255	-71.167	2108	"Stratovolcano"	"Holocene"	"U"
	357061	"Maule, Laguna del"	"Chile"	"Chile-C"	-36.058	-70.492	2162	"Stratovolcano"	"Holocene"	"U"
	357130	"Mocho-Choshuenco"	"Chile"	"Chile-C"	-39.927	-72.027	2422	"Stratovolcano"	"Historical"	"D2"
	357022	"Palomo"	"Chile"	"Chile-C"	-34.608	-70.295	4860	"Stratovolcano"	"Holocene"	"U"
	357152	"Pantojo, Cerro"	"Chile"	"Chile-C"	-40.77	-71.95	1897	"Stratovolcano"	"Holocene"	"U"
	357040	"Planchon-Peteroa"	"Chile"	"Chile-C"	-35.223	-70.568	3977	"Caldera"	"Historical"	"D1"
	357160	"Puntiagudo-Cordon Cenizos"	"Chile"	"Chile-C"	-40.969	-72.264	2493	"Stratovolcano"	"Historical"	"D3"
	357150	"Puyehue-Cordon Caulle"	"Chile"	"Chile-C"	-40.59	-72.117	2236	"Stratovolcano"	"Holocene"	"U"
	357121	"Quetrupillan"	"Chile"	"Chile-C"	-39.496	-71.722	2360	"Caldera"	"Historical"	"D3"
	357065	"Resago, Volcan"	"Chile"	"Chile-C"	-36.461	-70.903	1890	"Cinder cone"	"Holocene"	"U"
	357062	"San Pedro-Pellado"	"Chile"	"Chile-C"	-35.989	-70.849	3621	"Stratovolcano"	"Holocene"	"U"
	357111	"Sollipulli"	"Chile"	"Chile-C"	-38.97	-71.52	2282	"Caldera"	"Radiocarbon"	"D6"
	357030	"Tinguiririca"	"Chile"	"Chile-C"	-34.814	-70.352	4280	"Stratovolcano"	"Historical"	"D2"
	357093	"Tolhuaca"	"Chile"	"Chile-C"	-38.31	-71.645	2739	"Stratovolcano"	"Holocene"	"U"
	357101	"Tralihue"	"Chile"	"Chile-C"	-38.509	-70.898	2448	"Cinder cone"	"Holocene"	"U"
	357010	"Tupungatito"	"Chile"	"Chile-C"	-33.425	-69.797	5660	"Stratovolcano"	"Historical"	"D1"
	357120	"Villarrica"	"Chile"	"Chile-C"	-39.42	-71.93	2847	"Stratovolcano"	"Historical"	"D1"
	356011	"Rapa Nui"	"Chile"	"Chile-Is"	-27.114	-109.356	501	"Shield volcanoes"	"Holocene"	"U"
		"Robinson Crusoe"	"Chile"	"Chile-Is"	-33.658	-78.85	922	"Shield volcano"	"Historical"	"D3"
		"San Felix"	"Chile"	"Chile-Is"	-26.27	-80.12	183	"Shield volcano"	"Holocene"	"U"
		"Unnamed"	"Chile"	"Chile-Is"	-33.622	-78.78	0	"Submarine volcano"	"Historical"	"D3"
		"Unnamed"	"Chile"	"Chile-Is"	-33.62	-76.83	-642	"Submarine volcano"	"Uncertain"	"Unknown"
	355122	"Bayo Gorbea, Cerro"	"Argentina"	"Chile-N"	-25.414	-68.588	5413	"Complex volcano"	"Holocene"	"U"
	355121	"Cordon del Azufre"	"Argentina"	"Chile-N"	-25.336	-68.521	5481	"Complex volcano"	"Holocene"	"U"
	355112	"Corrida de Cori Volcanic Field"	"Argentina"	"Chile-N"	-25.083	-68.367	5451	"Stratovolcano"	"Holocene"	"U"
	355110	"Llullaillaco"	"Argentina"	"Chile-N"	-24.72	-68.53	6739	"Stratovolcano"	"Historical"	"D3"
	355130	"Ojos del Salado, Nevados"	"Argentina"	"Chile-N"	-27.109	-68.541	6879	"Stratovolcano"	"Holocene"	"U"
	355109	"Socompa"	"Argentina"	"Chile-N"	-24.396	-68.246	6031	"Stratovolcano"	"Radiocarbon"	"D7"
	355061	"Azufre, Cerro del"	"Bolivia"	"Chile-N"	-21.787	-68.237	5846	"Stratovolcano"	"Holocene"	"U"
	355093	"Guayaques"	"Bolivia"	"Chile-N"	-22.895	-67.566	5598	"Lava dome"	"Holocene"	"U"
	355040	"Irruputuncu"	"Bolivia"	"Chile-N"	-20.73	-68.55	5163	"Stratovolcano"	"Historical"	"D1"
	355050	"Olca-Paruma"	"Bolivia"	"Chile-N"	-20.939	-68.413	5705	"Stratovolcano"	"Historical"	"D3"
	355091	"Sairecabur"	"Bolivia"	"Chile-N"	-22.719	-67.891	5961	"Stratovolcano"	"Holocene"	"U"
	355096	"Acamarachi"	"Chile"	"Chile-N"	-23.292	-67.618	6023	"Stratovolcano"	"Holocene"	"Unknown"
	355104	"Caichinque"	"Chile"	"Chile-N"	-23.949	-67.74	4458	"Maar"	"Holocene"	"U"
	355098	"Chiliques"	"Chile"	"Chile-N"	-23.58	-67.7	5778	"Stratovolcano"	"Holocene?"	"?"
	355095	"Colachi"	"Chile"	"Chile-N"	-23.236	-67.645	5631	"Stratovolcano"	"Holocene"	"U"
		"Copiapo"	"Chile"	"Chile-N"	-27.3	-69.13	6052	"Stratovolcano"	"Uncertain"	"Unknown"
	355101	"Cordon de Puntas Negras"	"Chile"	"Chile-N"	-23.743	-67.534	5852	"Stratovolcano"	"Holocene"	"U"
	355020	"Guallatiri"	"Chile"	"Chile-N"	-18.42	-69.092	6071	"Stratovolcano"	"Historical"	"D2"
	355030	"Isluga"	"Chile"	"Chile-N"	-19.15	-68.83	5550	"Stratovolcano"	"Historical"	"D2"
	355100	"Lascar"	"Chile"	"Chile-N"	-23.37	-67.73	5592	"Stratovolcano"	"Historical"	"D1"
	355120	"Lastarria"	"Chile"	"Chile-N"	-25.168	-68.507	5706	"Stratovolcano"	"Holocene"	"U"
	355092	"Licancabur"	"Chile"	"Chile-N"	-22.83	-67.88	5916	"Stratovolcano"	"Holocene"	"U"
	355102	"Miniques"	"Chile"	"Chile-N"	-23.82	-67.77	5910	"Stratovolcano"	"Holocene"	"U"
	355106	"Negrillar, El"	"Chile"	"Chile-N"	-24.18	-68.25	3500	"Pyroclastic cone"	"Holocene"	"Unknown"
	355108	"Negrillar, La"	"Chile"	"Chile-N"	-24.319	-68.59	4220	"Pyroclastic cone"	"Holocene"	"Unknown"
	355097	"Overo, Cerro"	"Chile"	"Chile-N"	-23.52	-67.67	4555	"Maar"	"Holocene"	"U"
	355094	"Purico Complex"	"Chile"	"Chile-N"	-23	-67.75	5703	"Pyroclastic shield"	"Holocene"	"U"
	355090	"Putana"	"Chile"	"Chile-N"	-22.557	-67.853	5884	"Stratovolcano"	"Historical"	"D1"
	355070	"San Pedro-San Pablo"	"Chile"	"Chile-N"	-21.888	-68.391	6142	"Stratovolcano"	"Historical"	"D2"
	355011	"Taapaca"	"Chile"	"Chile-N"	-18.1	-69.5	5860	"Lava dome"	"Holocene"	"U"
	355010	"Tacora"	"Chile"	"Chile-N"	-17.721	-69.773	5960	"Stratovolcano"	"Fumarolic"	"U"
	355032	"Tata Sabaya"	"Chile"	"Chile-N"	-19.13	-68.53	5430	"Unknown"	"Holocene"	"Unknown"
	355105	"Tilocalar"	"Chile"	"Chile-N"	-23.97	-68.13	3109	"Stratovolcano"	"Holocene"	"U"
	355103	"Tujle, Cerro"	"Chile"	"Chile-N"	-23.83	-67.95	3550	"Stratovolcano"	"Holocene"	"U"
	358062	"Aguilera"	"Chile"	"Chile-S"	-50.33	-73.75	2546	"Stratovolcano"	"Radiocarbon"	"D7"
	358059	"Arenales"	"Chile"	"Chile-S"	-47.2	-73.483	3437	"Stratovolcano"	"Historical"	"D2"
	358070	"Burney, Monte"	"Chile"	"Chile-S"	-52.33	-73.4	1758	"Stratovolcano"	"Historical"	"D2"
	358020	"Calbuco"	"Chile"	"Chile-S"	-41.33	-72.618	1974	"Stratovolcano"	"Historical"	"D2"
	358055	"Cay"	"Chile"	"Chile-S"	-45.059	-72.984	2090	"Stratovolcano"	"Holocene"	"Unknown"
		"Cayute-La Vigueria"	"Chile"	"Chile-S"	-41.25	-72.27	506	"Pyroclastic cone"	"Holocene"	"U"
	358012	"Cayutue-La Vigueria"	"Chile"	"Chile-S"	-41.3	-72.27	506	"Pyroclastic cones"	"Tephrochronology"	"D7"
	358041	"Chaiten"	"Chile"	"Chile-S"	-42.835	-72.651	1122	"Caldera"	"Holocene"	"D1"
	358050	"Corcovado"	"Chile"	"Chile-S"	-43.189	-72.794	1826	"Stratovolcanoes"	"Radiocarbon"	"D7"
	358090	"Fueguino"	"Chile"	"Chile-S"	-54.97	-70.262	157	"Lava dome"	"Holocene"	"U"
	358023	"Hornopiren"	"Chile"	"Chile-S"	-41.874	-72.431	1572	"Stratovolcano"	"Holocene"	"Unknown"
	358057	"Hudson, Cerro"	"Chile"	"Chile-S"	-45.9	-72.97	1905	"Stratovolcano"	"Historical"	"D1"
	358030	"Huequi"	"Chile"	"Chile-S"	-42.377	-72.578	1318	"Stratovolcano"	"Historical"	"D2"
	358060	"Lautaro"	"Chile"	"Chile-S"	-49.019	-73.504	3542	"Stratovolcano"	"Historical"	"D2"
	358056	"Maca"	"Chile"	"Chile-S"	-45.1	-73.17	2960	"Stratovolcano"	"Holocene"	"U"
	358052	"Melimoyu"	"Chile"	"Chile-S"	-44.08	-72.88	2400	"Cinder cone"	"Holocene"	"U"
	358054	"Mentolat"	"Chile"	"Chile-S"	-44.7	-73.08	1660	"Cinder cone"	"Holocene"	"U"
	358064	"Meullin"	"Chile"	"Chile-S"	-45.22	-73.05	1080	"Volcanic field"		"Unknown"
	358040	"Michinmahuida"	"Chile"	"Chile-S"	-42.799	-72.445	2452	"Stratovolcano"	"Historical"	"D3"
	358010	"Osorno"	"Chile"	"Chile-S"	-41.105	-72.496	2659	"Stratovolcano"	"Historical"	"D3"
	358051	"Palena Volcanic Group"	"Chile"	"Chile-S"	-43.42	-72.83	2991	"Stratovolcano"	"Historical"	"D3"
	358080	"Pali-Aike Volcanic Field"	"Chile"	"Chile-S"	-52.082	-69.698	282	"Cinder cone"	"Anthropology"	"D7"
	358053	"Puyuhuapi"	"Chile"	"Chile-S"	-44.3	-72.53	524	"Stratovolcano"	"Holocene"	"U"
	358063	"Reclus"	"Chile"	"Chile-S"	-50.964	-73.58	1403	"Stratovolcano"	"Radiocarbon"	"D7"
		"Río Murta"	"Chile"	"Chile-S"	-46.167	-72.667		"Pyroclastic cones"	"Holocene?"	"?"
	358011	"Tronador"	"Chile"	"Chile-S"	-41.157	-71.885	3478	"Stratovolcano"	"Holocene?"	"?"
	358049	"Yanteles"	"Chile"	"Chile-S"	-43.469	-72.782	1790	"Stratovolcano"	"Historical"	"D3"
	358022	"Yate"	"Chile"	"Chile-S"	-41.755	-72.396	2187	"Stratovolcano"	"Holocene"	"U"
	358025	"Crater Basalt Volcanic Field"	"Argentina"	"Chile-S/Argentina"	-42.018	-70.194	1344	"Cinder cones"	"Holocene"	"U"
	305011	"Arxan-Chaihe"	"China"	"China-E"	47.45	120.8	1677	"Cinder cones"	"Radiocarbon"	"D"
	305010	"Honggeertu"	"China"	"China-E"	41.59	113.111	1605	"Cinder cone"	"Holocene"	"Unknown"
	305040	"Jingpohu"	"China"	"China-E"	44.08	128.83	1000	"Volcanic field"	"Radiocarbon"	"D7"
	305020	"Keluo Group"	"China"	"China-E"	49.37	125.92	670	"Pyroclastic cone"	"Holocene"	"U"
	305050	"Longgang Group"	"China"	"China-E"	42.33	126.5	1000	"Cinder cone"	"Radiocarbon"	"D4"
	305030	"Wudalianchi"	"China"	"China-E"	48.722	126.15	597	"Volcanic field"	"Historical"	"D4"
	305060	"Changbaishan"	"North Korea"	"China-E"	41.98	128.08	2744	"Stratovolcano"	"Historical"	"D4"
	275110	"Tengchong"	"China"	"China-S"	25.23	98.5	2865	"Pyroclastic cone"	"Historical"	"D5"
	304030	"Ashikule Volcanic Field"	"China"	"China-W"	35.742	81.646	5090	"Pyroclastic cone"	"Historical"	"D2"
		"Tianshan Volc Group"	"China"	"China-W"	42.5	82.5	0	"Volcanic field"	"Historical"	"D6"
		"Turfan"	"China"	"China-W"	42.9	89.25	0	"Cone"	"Historical"	"D6"
		"Unnamed"	"China"	"China-W"	35.85	91.7	5400	"Volcanic field"	"Holocene"	"U"
	351090	"Azufral"	"Colombia"	"Colombia"	1.08	-77.68	4070	"Stratovolcano"	"Radiocarbon"	"D7"
	351012	"Bravo, Cerro"	"Colombia"	"Colombia"	5.091	-75.293	3985	"Stratovolcano"	"Radiocarbon"	"D4"
	351100	"Cumbal"	"Colombia"	"Colombia"	0.95	-77.87	4764	"Stratovolcano"	"Historical"	"D2"
	351070	"Dona Juana"	"Colombia"	"Colombia"	1.5	-76.936	4137	"Stratovolcano"	"Historical"	"D2"
	351080	"Galeras"	"Colombia"	"Colombia"	1.22	-77.37	4276	"Complex volcano"	"Historical"	"D1"
	351050	"Huila, Nevado del"	"Colombia"	"Colombia"	2.93	-76.03	5364	"Stratovolcano"	"Historical"	"D5"
	351040	"Machin"	"Colombia"	"Colombia"	4.487	-75.389	2749	"Stratovolcano"	"Radiocarbon"	"D6"
	351062	"Petacas"	"Colombia"	"Colombia"	1.57	-76.78	3280	"Lava dome"	"Holocene"	"Unknown"
	351060	"Purace"	"Colombia"	"Colombia"	2.32	-76.4	4650	"Stratovolcano"	"Historical"	"D1"
	351011	"Romeral"	"Colombia"	"Colombia"	5.203	-75.363	3769	"Stratovolcano"	"Radiocarbon"	"D4"
	351020	"Ruiz, Nevado del"	"Colombia"	"Colombia"	4.892	-75.324	5279	"Stratovolcano"	"Historical"	"D1"
	351021	"Santa Isabel"	"Colombia"	"Colombia"	4.818	-75.365	4944	"Shield volcano"	"Radiocarbon"	"D7"
	351061	"Sotara"	"Colombia"	"Colombia"	2.108	-76.592	4400	"Stratovolcano"	"Holocene"	"U"
	351030	"Tolima, Nevado del"	"Colombia"	"Colombia"	4.658	-75.33	5215	"Stratovolcano"	"Historical"	"D2"
	351110	"Chiles-Cerro Negro"	"Ecuador"	"Colombia"	0.817	-77.938	4698	"Stratovolcano"	"Holocene"	"D2"
	345033	"Arenal"	"Costa Rica"	"Costa Rica"	10.463	-84.703	1670	"Stratovolcano"	"Historical"	"D1"
	345050	"Barva"	"Costa Rica"	"Costa Rica"	10.135	-84.1	2906	"Complex volcano"	"Tephrochronology"	"D7"
	345060	"Irazu"	"Costa Rica"	"Costa Rica"	9.979	-83.852	3436	"Stratovolcano"	"Historical"	"D1"
	345030	"Miravalles"	"Costa Rica"	"Costa Rica"	10.748	-85.153	2028	"Stratovolcano"	"Historical"	"D2"
	345010	"Orosi"	"Costa Rica"	"Costa Rica"	10.98	-85.473	1659	"Stratovolcano"	"Uncertain"	"Unknown"
	345034	"Platanar"	"Costa Rica"	"Costa Rica"	10.3	-84.366	2267	"Stratovolcano"	"Holocene"	"U"
	345040	"Poas"	"Costa Rica"	"Costa Rica"	10.2	-84.233	2697	"Stratovolcano"	"Historical"	"D1"
	345020	"Rincon de la Vieja"	"Costa Rica"	"Costa Rica"	10.83	-85.324	1916	"Complex volcano"	"Historical"	"D1"
	345031	"Tenorio"	"Costa Rica"	"Costa Rica"	10.673	-85.015	1916	"Stratovolcano"	"Holocene"	"U"
	345070	"Turrialba"	"Costa Rica"	"Costa Rica"	10.025	-83.767	3340	"Stratovolcano"	"Historical"	"D3"
	253060	"Dawson Strait Group"	"Papua New Guinea"	"D'Entrecasteaux Is"	-9.62	150.88	500	"Volcanic field"	"Hydration Rind"	"D6"
	253041	"Goodenough"	"Papua New Guinea"	"D'Entrecasteaux Is"	-9.358	150.246	220	"Volcanic field"	"Holocene"	"U"
	253050	"Iamalele"	"Papua New Guinea"	"D'Entrecasteaux Is"	-9.506	150.524	194	"Lava dome"	"Holocene"	"U"
	352031	"Aliso"	"Ecuador"	"Ecuador"	-0.53	-78	4267	"Stratovolcano"		"D7"
	352030	"Antisana"	"Ecuador"	"Ecuador"	-0.481	-78.141	5753	"Stratovolcano"	"Historical"	"D3"
	352021	"Atacazo"	"Ecuador"	"Ecuador"	-0.353	-78.617	4463	"Stratovolcano"	"Radiocarbon"	"D7"
	352006	"Cayambe"	"Ecuador"	"Ecuador"	0.029	-77.986	5790	"Compound volcano"	"Historical"	"D4"
	352022	"Chacana"	"Ecuador"	"Ecuador"	-0.375	-78.25	4643	"Caldera"	"Historical"	"D4"
	352002	"Chachimbiro"	"Ecuador"	"Ecuador"	0.468	-78.287	4106	"Caldera"	"Radiocarbon"	"D7"
	352071	"Chimborazo"	"Ecuador"	"Ecuador"	-1.469	-78.817	6261	"Stratovolcano"	"Radiocarbon"	"D6"
	352050	"Cotopaxi"	"Ecuador"	"Ecuador"	-0.677	-78.436	5911	"Stratovolcano"	"Historical"	"D2"
	352003	"Cuicocha"	"Ecuador"	"Ecuador"	0.308	-78.364	3246	"Stratovolcano"	"Holocene"	"Unknown"
	352020	"Guagua Pichincha"	"Ecuador"	"Ecuador"	-0.171	-78.598	4784	"Stratovolcano"	"Historical"	"D1"
	352041	"Iliniza"	"Ecuador"	"Ecuador"	-0.662	-78.716	5162	"Stratovolcano"	"Holocene"	"U"
	352004	"Imbabura"	"Ecuador"	"Ecuador"	0.258	-78.183	4609	"Compound volcano"	"Historical"	"D4"
	352081	"Licto"	"Ecuador"	"Ecuador"	-1.786	-78.614	3322	"Scoria cone"	"Holocene"	"U"
	352005	"Mojanda"	"Ecuador"	"Ecuador"	0.13	-78.27	4263	"Stratovolcanoes"	"Holocene?"	"?"
	352011	"Pululahua"	"Ecuador"	"Ecuador"	0.046	-78.49	3360	"Caldera"	"Radiocarbon"	"D7"
	352060	"Quilotoa"	"Ecuador"	"Ecuador"	-0.859	-78.904	3914	"Caldera"	"Radiocarbon"	"D6"
	352010	"Reventador"	"Ecuador"	"Ecuador"	-0.077	-77.656	3562	"Stratovolcano"	"Historical"	"D1"
	352090	"Sangay"	"Ecuador"	"Ecuador"	-2.005	-78.341	5286	"Stratovolcano"	"Historical"	"D1"
	352001	"Soche"	"Ecuador"	"Ecuador"	0.552	-77.58	3955	"Stratovolcano"	"Radiocarbon"	"D7"
	352040	"Sumaco"	"Ecuador"	"Ecuador"	-0.538	-77.626	3990	"Stratovolcano"	"Historical"	"D3"
	352080	"Tungurahua"	"Ecuador"	"Ecuador"	-1.467	-78.442	5023	"Stratovolcano"	"Historical"	"D1"
	343010	"Apaneca Range"	"El Salvador"	"El Salvador"	13.872	-89.742	2028	"Stratovolcano"	"Holocene"	"U"
	343071	"Apastepeque Field"	"El Salvador"	"El Salvador"	13.72	-88.77	700	"Volcanic field"	"Holocene"	"U"
	343101	"Aramuaca, Laguna"	"El Salvador"	"El Salvador"	13.428	-88.105	181	"Maar"	"Holocene"	"U"
	343090	"Chinameca"	"El Salvador"	"El Salvador"	13.478	-88.33	1300	"Stratovolcano"	"Holocene"	"U"
	343051	"Cinotepeque, Cerro"	"El Salvador"	"El Salvador"	14.02	-89.25	665	"Volcanic field"	"Holocene"	"U"
	343041	"Coatepeque Caldera"	"El Salvador"	"El Salvador"	13.87	-89.55	746	"Caldera"	"Holocene"	"U"
		"Conchagua"	"El Salvador"	"El Salvador"	13.277	-87.853	1250	"Stratovolcano"	"Uncertain"	"Unknown"
		"Conchaguita"	"El Salvador"	"El Salvador"	13.22	-87.765	550	"Stratovolcano"	"Historical"	"D3"
	343052	"Guazapa"	"El Salvador"	"El Salvador"	13.9	-89.12	1438	"Stratovolcano"	"Holocene"	"U"
	343060	"Ilopango"	"El Salvador"	"El Salvador"	13.672	-89.053	450	"Caldera"	"Historical"	"D3"
	343030	"Izalco"	"El Salvador"	"El Salvador"	13.813	-89.633	1950	"Stratovolcano"	"Historical"	"D1"
	343001	"San Diego"	"El Salvador"	"El Salvador"	14.27	-89.48	781	"Volcanic field"	"Holocene"	"U"
		"San Marcelino"	"El Salvador"	"El Salvador"	13.853	-89.63	2381	"Stratovolcano"	"Historical"	"D2"
	343100	"San Miguel"	"El Salvador"	"El Salvador"	13.434	-88.269	2130	"Stratovolcano"	"Historical"	"D1"
	343050	"San Salvador"	"El Salvador"	"El Salvador"	13.734	-89.294	1893	"Stratovolcano"	"Historical"	"D2"
	343070	"San Vicente"	"El Salvador"	"El Salvador"	13.595	-88.837	2182	"Stratovolcano"	"Holocene"	"U"
	343020	"Santa Ana"	"El Salvador"	"El Salvador"	13.853	-89.63	2381	"Stratovolcano"	"Historical"	"D2"
	343002	"Singuil, Cerro"	"El Salvador"	"El Salvador"	14.054	-89.631	926	"Cinder cone"	"Holocene"	"U"
	343072	"Taburete"	"El Salvador"	"El Salvador"	13.435	-88.532	1172	"Stratovolcano"	"Holocene"	"U"
	343080	"Tecapa"	"El Salvador"	"El Salvador"	13.494	-88.502	1593	"Stratovolcano"	"Holocene"	"U"
	343082	"Tigre, El"	"El Salvador"	"El Salvador"	13.47	-88.43	1640	"Stratovolcano"	"Holocene"	"U"
	343081	"Usulutan"	"El Salvador"	"El Salvador"	13.419	-88.471	1449	"Stratovolcano"	"Holocene"	"U"
	221127	"Manda Gargori"	"Ethiopia"	"Ethiopia"	11.75	41.48	700	"Fissure vents"	"Anthropology"	"U"
	245020	"Koro"	"Fiji"	"Fiji Is-SW Pacific"	-17.32	179.4	522	"Cinder cone"	"Holocene"	"Unknown"
	245030	"Nabukelevu"	"Fiji"	"Fiji Is-SW Pacific"	-19.118	177.982	791	"Lava domes"	"Radiocarbon"	"D5"
	245010	"Taveuni"	"Fiji"	"Fiji Is-SW Pacific"	-16.841	-179.964	1241	"Shield volcano"	"Radiocarbon"	"D7"
	210020	"Chaine des Puys"	"France"	"France"	45.786	2.981	1464	"Cinder cone"	"Radiocarbon"	"D7"
	353040	"Alcedo"	"Ecuador"	"Galapagos"	-0.43	-91.12	1130	"Shield volcano"	"Historical"	"D1"
	353060	"Azul, Cerro"	"Ecuador"	"Galapagos"	-0.92	-91.408	1640	"Shield volcano"	"Historical"	"D1"
	353030	"Darwin"	"Ecuador"	"Galapagos"	-0.18	-91.28	1330	"Shield volcano"	"Holocene"	"D3"
	353011	"Ecuador"	"Ecuador"	"Galapagos"	-0.02	-91.546	790	"Shield volcano"	"Holocene"	"U"
	353010	"Fernandina"	"Ecuador"	"Galapagos"	-0.37	-91.55	1476	"Shield volcano"	"Historical"	"D1"
	353081	"Genovesa"	"Ecuador"	"Galapagos"	0.32	-89.958	64	"Shield volcano"	"Holocene"	"U"
	353080	"Marchena"	"Ecuador"	"Galapagos"	0.33	-90.47	343	"Shield volcano"	"Historical"	"D1"
	353050	"Negra, Sierra"	"Ecuador"	"Galapagos"	-0.83	-91.17	1124	"Shield volcano"	"Historical"	"D1"
	353070	"Pinta"	"Ecuador"	"Galapagos"	0.58	-90.75	780	"Shield volcano"	"Historical"	"D2"
	353120	"San Cristobal"	"Ecuador"	"Galapagos"	-0.88	-89.5	759	"Shield volcano"	"Holocene"	"U"
	353091	"Santa Cruz"	"Ecuador"	"Galapagos"	-0.62	-90.33	864	"Shield volcano"	"Holocene"	"U"
	353090	"Santiago"	"Ecuador"	"Galapagos"	-0.22	-90.77	920	"Shield volcano"	"Historical"	"D2"
	353020	"Wolf"	"Ecuador"	"Galapagos"	0.02	-91.35	1710	"Shield volcano"	"Historical"	"D1"
		"Kabargin Oth Group"	"Georgia"	"Georgia"	42.55	44	3650	"Cinder cone"	"Holocene"	"U"
	214020	"Kazbek"	"Georgia"	"Georgia"	42.7	44.5	5050	"Stratovolcano"	"Tephrochronology"	"D7"
	214050	"Samsari Volcanic Center"	"Georgia"	"Georgia"	41.542	43.7	3290	"Lava cone"	"Holocene"	"U"
		"Unnamed"	"Georgia"	"Georgia"	42.45	44.25	3750	"Cinder cone"	"Holocene"	"U"
	210010	"West Eifel Volcanic Field"	"Germany"	"Germany"	50.17	6.85	600	"Maar"	"Radiocarbon"	"D7"
	212020	"Methana"	"Greece"	"Greece"	37.619	23.333	380	"Lava dome"	"Historical"	"D7"
	212030	"Milos"	"Greece"	"Greece"	36.699	24.439	751	"Stratovolcano"	"Holocene"	"U"
	212050	"Nisyros"	"Greece"	"Greece"	36.589	27.155	698	"Stratovolcano"	"Historical"	"D3"
	212040	"Santorini"	"Greece"	"Greece"	36.404	25.396	367	"Shield volcano"	"Historical"	"D2"
	212051	"Yali"	"Greece"	"Greece"	36.671	27.14	180	"Lava dome"	"Holocene"	"U"
	342080	"Acatenango"	"Guatemala"	"Guatemala"	14.501	-90.876	3976	"Stratovolcano"	"Historical"	"D1"
	342100	"Agua"	"Guatemala"	"Guatemala"	14.465	-90.743	3760	"Stratovolcano"	"Holocene"	"U"
	342040	"Almolonga"	"Guatemala"	"Guatemala"	14.797	-91.519	3173	"Stratovolcano"	"Historical"	"D3"
	342060	"Atitlan"	"Guatemala"	"Guatemala"	14.583	-91.186	3535	"Stratovolcano"	"Historical"	"D3"
	342170	"Chingo"	"Guatemala"	"Guatemala"	14.12	-89.73	1775	"Stratovolcano"	"Holocene"	"U"
	342200	"Chiquimula Volcanic Field"	"Guatemala"	"Guatemala"	14.83	-89.55	1192	"Cinder cone"	"Holocene"	"U"
	342111	"Cuilapa-Barbarena"	"Guatemala"	"Guatemala"	14.33	-90.4	1454	"Volcanic field"	"Holocene"	"U"
	342140	"Flores"	"Guatemala"	"Guatemala"	14.308	-89.992	1600	"Volcanic field"	"Holocene"	"U"
	342090	"Fuego"	"Guatemala"	"Guatemala"	14.473	-90.88	3763	"Stratovolcano"	"Historical"	"D1"
	342190	"Ipala"	"Guatemala"	"Guatemala"	14.55	-89.63	1650	"Stratovolcano"	"Holocene"	"U"
	342180	"Ixtepeque"	"Guatemala"	"Guatemala"	14.42	-89.68	1292	"Lava dome"	"Holocene"	"U"
	342121	"Jumaytepeque"	"Guatemala"	"Guatemala"	14.34	-90.271	1802	"Volcanic field"	"Holocene"	"U"
	342130	"Moyuta"	"Guatemala"	"Guatemala"	14.03	-90.1	1662	"Stratovolcano"	"Hot Springs"	"U"
	342110	"Pacaya"	"Guatemala"	"Guatemala"	14.382	-90.601	2569	"Complex volcano"	"Historical"	"D1"
	342210	"Quezaltepeque"	"Guatemala"	"Guatemala"	14.57	-89.45	1200	"Volcanic field"	"Holocene"	"U"
	342030	"Santa Maria"	"Guatemala"	"Guatemala"	14.757	-91.552	3745	"Stratovolcano"	"Historical"	"D1"
	342150	"Santiago, Cerro"	"Guatemala"	"Guatemala"	14.33	-89.87	1192	"Volcanic field"	"Holocene"	"U"
	342160	"Suchitan"	"Guatemala"	"Guatemala"	14.4	-89.78	2042	"Stratovolcano"	"Holocene"	"U"
	342141	"Tahual"	"Guatemala"	"Guatemala"	14.43	-89.9	1716	"Stratovolcano"	"Holocene"	"U"
	342020	"Tajumulco"	"Guatemala"	"Guatemala"	15.043	-91.903	4203	"Stratovolcano"	"Holocene"	"U"
	342120	"Tecuamburro"	"Guatemala"	"Guatemala"	14.156	-90.407	1845	"Stratovolcano"	"Radiocarbon"	"D7"
	342070	"Toliman"	"Guatemala"	"Guatemala"	14.612	-91.189	3158	"Stratovolcano"	"Holocene"	"U"
	268072	"Amasing"	"Indonesia"	"Halmahera-Indonesia"	-0.525	127.496	1006	"Stratovolcano"	"Holocene"	"U"
	268073	"Bibinoi"	"Indonesia"	"Halmahera-Indonesia"	-0.761	127.725	932	"Stratovolcano"	"Holocene"	"U"
	268010	"Dukono"	"Indonesia"	"Halmahera-Indonesia"	1.699	127.878	1273	"Complex volcano"	"Historical"	"D1"
	268060	"Gamalama"	"Indonesia"	"Halmahera-Indonesia"	0.81	127.332	1714	"Stratovolcano"	"Historical"	"D1"
	268040	"Gamkonora"	"Indonesia"	"Halmahera-Indonesia"	1.38	127.53	1635	"Stratovolcano"	"Historical"	"D1"
	268052	"Hiri"	"Indonesia"	"Halmahera-Indonesia"	0.9	127.32	630	"Stratovolcano"	"Holocene"	"U"
	268030	"Ibu"	"Indonesia"	"Halmahera-Indonesia"	1.488	127.63	1325	"Stratovolcano"	"Historical"	"D1"
	268051	"Jailolo"	"Indonesia"	"Halmahera-Indonesia"	1.08	127.439	993	"Stratovolcano"	"Holocene"	"U"
	268070	"Kie Besi"	"Indonesia"	"Halmahera-Indonesia"	0.32	127.4	1357	"Stratovolcano"	"Historical"	"D1"
	268061	"Kie Matubu"	"Indonesia"	"Halmahera-Indonesia"	0.662	127.403	1713	"Stratovolcano"	"Holocene"	"U"
	268062	"Mare"	"Indonesia"	"Halmahera-Indonesia"	0.57	127.4	308	"Unknown"	"Holocene"	"U"
	268063	"Moti"	"Indonesia"	"Halmahera-Indonesia"	0.454	127.411	927	"Stratovolcano"	"Holocene"	"U"
	268001	"Tarakan"	"Indonesia"	"Halmahera-Indonesia"	1.832	127.825	317	"Pyroclastic cone"	"Holocene"	"U"
	268071	"Tigalalu"	"Indonesia"	"Halmahera-Indonesia"	0.07	127.42	422	"Unknown"	"Holocene"	"U"
	268020	"Tobaru"	"Indonesia"	"Halmahera-Indonesia"	1.63	127.67	1035	"Unknown"	"Holocene"	"U"
	268050	"Todoko-Ranu"	"Indonesia"	"Halmahera-Indonesia"	1.239	127.456	979	"Caldera"	"Holocene"	"U"
	332060	"Haleakala"	"United States"	"Hawaiian Is"	20.708	-156.25	3055	"Shield volcano"	"Historical"	"D4"
	332040	"Hualalai"	"United States"	"Hawaiian Is"	19.692	-155.87	2523	"Shield volcano"	"Historical"	"D3"
	332000	"Kama'ehuakanaloa"	"United States"	"Hawaiian Is"	18.92	-155.27	-975	"Submarine volcano"	"Historical"	"D1"
	332010	"Kilauea"	"United States"	"Hawaiian Is"	19.421	-155.287	1222	"Shield volcano"	"Historical"	"D1"
	332030	"Mauna Kea"	"United States"	"Hawaiian Is"	19.82	-155.47	4205	"Shield volcano"	"Radiocarbon"	"D7"
	332020	"Mauna Loa"	"United States"	"Hawaiian Is"	19.475	-155.608	4170	"Shield volcano"	"Historical"	"D1"
		"Unnamed"	"United States"	"Hawaiian Is"	21.75	-158.75	-3000	"Submarine volcano"	"Uncertain"	"Unknown"
		"Unnamed"	"United States"	"Hawaiian Is"	23.58	-163.83	-4000	"Submarine volcano"	"Historical"	"D2"
	285070	"Akan"	"Japan"	"Hokkaido-Japan"	43.384	144.013	1499	"Caldera"	"Historical"	"D1"
	285011	"Esan"	"Japan"	"Hokkaido-Japan"	41.805	141.166	618	"Stratovolcano"	"Historical"	"D3"
	285020	"Hokkaido-Komagatake"	"Japan"	"Hokkaido-Japan"	42.063	140.677	1131	"Stratovolcano"	"Historical"	"D1"
	285080	"Kussharo"	"Japan"	"Hokkaido-Japan"	43.615	144.427	574	"Caldera"	"Tephrochronology"	"D6"
	285034	"Kuttara"	"Japan"	"Hokkaido-Japan"	42.491	141.16	549	"Stratovolcano"	"Tephrochronology"	"D3"
	285081	"Mashu"	"Japan"	"Hokkaido-Japan"	43.572	144.561	857	"Caldera"	"Radiocarbon"	"D6"
	285031	"Niseko"	"Japan"	"Hokkaido-Japan"	42.875	140.659	1308	"Stratovolcano"	"Holocene"	"U"
	285010	"Oshima-Oshima"	"Japan"	"Hokkaido-Japan"	41.51	139.367	732	"Stratovolcano"	"Historical"	"D4"
	285082	"Rausudake"	"Japan"	"Hokkaido-Japan"	44.076	145.122	1660	"Stratovolcano"	"Tephrochronology"	"D3"
	285041	"Rishirizan"	"Japan"	"Hokkaido-Japan"	45.179	141.242	1721	"Stratovolcano"	"Radiocarbon"	"D7"
		"Shikaribetsu Group"	"Japan"	"Hokkaido-Japan"	43.28	143.08	1430	"Lava dome"	"Holocene"	"U"
	285040	"Shikotsu"	"Japan"	"Hokkaido-Japan"	42.688	141.38	1320	"Caldera"	"Historical"	"D1"
	285090	"Shiretoko-Iozan"	"Japan"	"Hokkaido-Japan"	44.133	145.161	1562	"Stratovolcano"	"Historical"	"D2"
	285060	"Taisetsuzan"	"Japan"	"Hokkaido-Japan"	43.664	142.854	2291	"Stratovolcano"	"Tephrochronology"	"D6"
	285083	"Tenchozan"	"Japan"	"Hokkaido-Japan"	44.044	145.086	1046	"Crater rows"		"?"
	285050	"Tokachidake"	"Japan"	"Hokkaido-Japan"	43.418	142.686	2077	"Stratovolcano"	"Historical"	"D1"
	285030	"Toya"	"Japan"	"Hokkaido-Japan"	42.544	140.839	733	"Stratovolcano"	"Historical"	"D1"
	285032	"Yoteizan"	"Japan"	"Hokkaido-Japan"	42.827	140.812	1888	"Stratovolcano"	"Radiocarbon"	"D7"
	343130	"Tigre, Isla del"	"Honduras"	"Honduras"	13.274	-87.639	774	"Stratovolcano"	"Holocene"	"U"
	343160	"Utila Island"	"Honduras"	"Honduras"	16.1	-86.9	74	"Pyroclastic cone"	"Holocene"	"U"
	343150	"Yojoa, Lago"	"Honduras"	"Honduras"	14.964	-87.983	1060	"Volcanic field"	"Holocene"	"U"
	343140	"Zacate Grande, Isla"	"Honduras"	"Honduras"	13.33	-87.63	640	"Stratovolcano"	"Holocene"	"U"
	283001	"Abu"	"Japan"	"Honshu-Japan"	34.483	131.517	641	"Shield volcano"	"Holocene"	"Unknown"
	283170	"Adatarayama"	"Japan"	"Honshu-Japan"	37.647	140.281	1728	"Stratovolcano"	"Historical"	"D1"
	283130	"Akagisan"	"Japan"	"Honshu-Japan"	36.56	139.193	1828	"Stratovolcano"	"Historical"	"D6"
	283069	"Akandanayama"	"Japan"	"Honshu-Japan"	36.2	137.573	2109	"Stratovolcano"		"Unknown"
	283230	"Akita-Komagatake"	"Japan"	"Honshu-Japan"	39.761	140.799	1637	"Stratovolcano"	"Historical"	"D1"
	283260	"Akita-Yakeyama"	"Japan"	"Honshu-Japan"	39.964	140.757	1366	"Complex volcano"	"Historical"	"D1"
	283110	"Asamayama"	"Japan"	"Honshu-Japan"	36.406	138.523	2568	"Complex volcano"	"Historical"	"D1"
	283180	"Azumayama"	"Japan"	"Honshu-Japan"	37.735	140.244	1949	"Stratovolcano"	"Historical"	"D1"
	283160	"Bandaisan"	"Japan"	"Honshu-Japan"	37.601	140.072	1816	"Stratovolcano"	"Historical"	"D3"
	283220	"Chokaisan"	"Japan"	"Honshu-Japan"	39.099	140.049	2236	"Stratovolcano"	"Historical"	"D1"
	283030	"Fujisan"	"Japan"	"Honshu-Japan"	35.361	138.728	3776	"Stratovolcano"	"Historical"	"D4"
	283250	"Hachimantai"	"Japan"	"Honshu-Japan"	39.958	140.854	1613	"Stratovolcano"	"Holocene"	"Unknown"
	283280	"Hakkodasan"	"Japan"	"Honshu-Japan"	40.659	140.877	1585	"Stratovolcano"	"Holocene"	"U"
	283020	"Hakoneyama"	"Japan"	"Honshu-Japan"	35.233	139.021	1438	"Complex volcano"	"Radiocarbon"	"D7"
	283050	"Hakusan"	"Japan"	"Honshu-Japan"	36.155	136.771	2702	"Stratovolcano"	"Historical"	"D5"
	283122	"Harunasan"	"Japan"	"Honshu-Japan"	36.477	138.851	1449	"Stratovolcano"	"Anthropology"	"D6"
	283191	"Hijiori"	"Japan"	"Honshu-Japan"	38.599	140.162	552	"Caldera"	"Radiocarbon"	"D7"
	283131	"Hiuchigatake"	"Japan"	"Honshu-Japan"	36.955	139.285	2356	"Stratovolcano"	"Historical"	"D5"
	283270	"Iwakisan"	"Japan"	"Honshu-Japan"	40.656	140.303	1625	"Stratovolcano"	"Historical"	"D3"
	283240	"Iwatesan"	"Japan"	"Honshu-Japan"	39.853	141.001	2038	"Complex volcano"	"Historical"	"D2"
	283010	"Izu-Tobu"	"Japan"	"Honshu-Japan"	34.9	139.098	1406	"Pyroclastic cone"	"Historical"	"D1"
	283210	"Kurikomayama"	"Japan"	"Honshu-Japan"	38.961	140.788	1627	"Stratovolcano"	"Historical"	"D2"
	283120	"Kusatsu-Shiranesan"	"Japan"	"Honshu-Japan"	36.618	138.528	2165	"Stratovolcano"	"Historical"	"D1"
	283262	"Megata"	"Japan"	"Honshu-Japan"	39.95	139.73	160	"Maar"	"Tephrochronology"	"D7"
	283080	"Midagahara"	"Japan"	"Honshu-Japan"	36.571	137.59	2621	"Stratovolcano"	"Historical"	"D3"
	283100	"Myokosan"	"Japan"	"Honshu-Japan"	36.891	138.114	2454	"Stratovolcano"	"Radiocarbon"	"D7"
	283141	"Nantaisan"	"Japan"	"Honshu-Japan"	36.765	139.491	2486	"Stratovolcano"	"Holocene"	"U"
	283200	"Naruko"	"Japan"	"Honshu-Japan"	38.729	140.734	470	"Caldera"	"Historical"	"D6"
	283150	"Nasudake"	"Japan"	"Honshu-Japan"	37.125	139.963	1915	"Stratovolcano"	"Historical"	"D2"
	283090	"Niigata-Yakeyama"	"Japan"	"Honshu-Japan"	36.921	138.036	2400	"Lava dome"	"Historical"	"D1"
	283140	"Nikko-Shiranesan"	"Japan"	"Honshu-Japan"	36.799	139.376	2578	"Shield volcano"	"Historical"	"D3"
	283060	"Norikuradake"	"Japan"	"Honshu-Japan"	36.106	137.554	3026	"Stratovolcano"	"Radiocarbon"	"D7"
	283151	"Numazawa"	"Japan"	"Honshu-Japan"	37.444	139.566	835	"Shield volcano"	"Radiocarbon"	"D7"
	283003	"Oki-Dogo"	"Japan"	"Honshu-Japan"	36.176	133.334	151	"Shield volcano"	"Anthropology"	"U"
	283142	"Omanago Group"	"Japan"	"Honshu-Japan"	36.807	139.476	2341	"Lava dome"	"Holocene"	"U"
	283040	"Ontakesan"	"Japan"	"Honshu-Japan"	35.893	137.48	3067	"Complex volcano"	"Historical"	"D1"
	283290	"Osorezan"	"Japan"	"Honshu-Japan"	41.279	141.12	878	"Stratovolcano"	"Historical"	"D4"
	283002	"Sanbesan"	"Japan"	"Honshu-Japan"	35.141	132.622	1126	"Caldera"	"Radiocarbon"	"D7"
	283121	"Shiga"	"Japan"	"Honshu-Japan"	36.688	138.519	2041	"Shield volcano"	"Holocene"	"U"
	283143	"Takaharayama"	"Japan"	"Honshu-Japan"	36.9	139.777	1795	"Stratovolcano"	"Holocene"	"U7"
	283271	"Towada"	"Japan"	"Honshu-Japan"	40.51	140.88	1011	"Caldera"	"Historical"	"D6"
	283071	"Washiba-Kumonotaira"	"Japan"	"Honshu-Japan"	36.408	137.594	2924	"Shield volcano"	"Tephrochronology"	"D7"
	283070	"Yakedake"	"Japan"	"Honshu-Japan"	36.227	137.587	2455	"Stratovolcano"	"Historical"	"D1"
	283031	"Yokodake"	"Japan"	"Honshu-Japan"	36.087	138.32	2480	"Stratovolcano"	"Holocene"	"U"
	283190	"Zaozan [Zaosan]"	"Japan"	"Honshu-Japan"	38.144	140.44	1841	"Complex volcano"	"Historical"	"D2"
	373090	"Theistareykir"	"Iceland"	"Iceland"	65.883	-16.967	563	"Shield volcano"	"Tephrochronology"	"D7"
		"Manareyjar"	"Iceland"	"Iceland-N"	66.3	-17.1	0	"Submarine volcano"	"Historical"	"D3"
	375010	"Kolbeinsey Ridge"	"Iceland"	"Iceland-N of"	66.67	-18.5	5	"Submarine volcano"	"Historical"	"D4"
	373100	"Tjornes Fracture Zone"	"Iceland"	"Iceland-N of"	66.309	-17.118	-75	"Submarine volcano"	"Historical"	"D3"
	373060	"Askja"	"Iceland"	"Iceland-NE"	65.033	-16.783	1080	"Stratovolcano"	"Historical"	"D2"
	373030	"Bardarbunga"	"Iceland"	"Iceland-NE"	64.633	-17.516	2000	"Stratovolcano"	"Historical"	"D2"
	373070	"Fremrinamar"	"Iceland"	"Iceland-NE"	65.416	-16.666	970	"Stratovolcano"	"Tephrochronology"	"D7"
	373010	"Grimsvotn"	"Iceland"	"Iceland-NE"	64.416	-17.316	1719	"Caldera"	"Historical"	"D1"
	373082	"Heidarspordar"	"Iceland"	"Iceland-NE"	65.583	-16.817	490	"Fissure vent"		"D7"
	373080	"Krafla"	"Iceland"	"Iceland-NE"	65.715	-16.728	800	"Caldera"	"Historical"	"D1"
	373050	"Kverkfjoll"	"Iceland"	"Iceland-NE"	64.653	-16.647	1930	"Stratovolcano"	"Historical"	"D1"
		"Lakagigar"	"Iceland"	"Iceland-NE"	64.42	-17.33	1725	"Caldera"	"Historical"	"D1"
	374801	"Snaefell"	"Iceland"	"Iceland-NE"	64.798	-15.56	1833	"Stratovolcano"	"Holocene"	"Unknown"
	373012	"Thordarhyrna"	"Iceland"	"Iceland-NE"	64.267	-17.617	1650	"Stratovolcano"		"D2"
		"Trollagigar"	"Iceland"	"Iceland-NE"	64.43	-18.13	1000	"Crater rows"	"Historical"	"D3"
	373040	"Tungnafellsjokull"	"Iceland"	"Iceland-NE"	64.75	-17.916	1523	"Stratovolcano"	"Holocene"	"U"
	372020	"Eyjafjallajokull"	"Iceland"	"Iceland-S"	63.633	-19.633	1651	"Stratovolcano"	"Historical"	"D1"
	372070	"Hekla"	"Iceland"	"Iceland-S"	63.983	-19.666	1490	"Stratovolcano"	"Historical"	"D1"
	371051	"Hromundartindur"	"Iceland"	"Iceland-S"	64.083	-21.333	550	"Stratovolcano"	"Holocene?"	"?"
	372030	"Katla"	"Iceland"	"Iceland-S"	63.633	-19.083	1490	"Subglacial volcano"	"Historical"	"D2"
		"Krakagiger"	"Iceland"	"Iceland-S"	63.98	-19.7	1491	"Stratovolcano"	"Historical"	"D1"
		"Lambafit"	"Iceland"	"Iceland-S"	64.08	-19.4	550	"Crater rows"	"Historical"	"D1"
		"Mundafell"	"Iceland"	"Iceland-S"	63.98	-19.7	1491	"Stratovolcano"	"Historical"	"D1"
		"Thordarhyrna"	"Iceland"	"Iceland-S"	62.27	-17.6	1659	"Stratovolcano"	"Historical"	"D2"
	372040	"Tindfjallajokull"	"Iceland"	"Iceland-S"	63.783	-19.716	1464	"Stratovolcano"	"Holocene"	"U"
	372050	"Torfajokull"	"Iceland"	"Iceland-S"	63.892	-19.122	1280	"Stratovolcano"	"Historical"	"D6"
	372010	"Vestmannaeyjar"	"Iceland"	"Iceland-S"	63.416	-20.266	283	"Submarine volcano"	"Historical"	"D1"
	374020	"Esjufjoll"	"Iceland"	"Iceland-SE"	64.25	-16.583	1620	"Stratovolcano"	"Historical"	"D2"
	374010	"Oraefajokull"	"Iceland"	"Iceland-SE"	64	-16.65	2010	"Stratovolcano"	"Historical"	"D4"
	371040	"Brennisteinsfjoll"	"Iceland"	"Iceland-SW"	63.933	-21.783	610	"Crater rows"	"Historical"	"D6"
	371022	"Eldey"	"Iceland"	"Iceland-SW"	63.733	-23	70	"Submarine"		"D2"
	371060	"Grimsnes"	"Iceland"	"Iceland-SW"	64.05	-20.883	200	"Crater rows"	"Tephrochronology"	"D7"
	371050	"Hengill"	"Iceland"	"Iceland-SW"	64.083	-21.416	803	"Crater rows"	"Radiocarbon"	"D6"
	371090	"Hofsjokull"	"Iceland"	"Iceland-SW"	64.833	-18.766	1765	"Subglacial volcano"	"Holocene"	"U"
		"Kristnitokugigar"	"Iceland"	"Iceland-SW"	63.98	-21.42	301	"Crater rows"	"Historical"	"Unknown"
	371030	"Krysuvik-Trolladyngja"	"Iceland"	"Iceland-SW"	63.917	-22.067	360	"Crater rows"	"Historical"	"D6"
	371080	"Oddnyjarhnjukur-Langjokull"	"Iceland"	"Iceland-SW"	64.85	-19.7	1100	"Stratovolcano"	"Radiocarbon"	"D6"
	371070	"Prestahnukur"	"Iceland"	"Iceland-SW"	64.583	-20.666	1385	"Subglacial volcano"	"Radiocarbon"	"D7"
	371020	"Reykjanes"	"Iceland"	"Iceland-SW"	63.817	-22.717	140	"Crater rows"	"Historical"	"D6"
		"Reykjaneshryggur"	"Iceland"	"Iceland-SW"	63.67	-23.33	80	"Submarine volcanoes"	"Historical"	"D1"
	370020	"Helgrindur"	"Iceland"	"Iceland-W"	64.866	-23.283	986	"Pyroclastic cone"	"Holocene"	"U"
	370030	"Ljosufjoll"	"Iceland"	"Iceland-W"	64.9	-22.483	1063	"Fissure vent"	"Anthropology"	"D6"
	370010	"Snaefellsjokull"	"Iceland"	"Iceland-W"	64.8	-23.783	1446	"Stratovolcano"	"Radiocarbon"	"D6"
		"Unnamed"	"Indian Ocean"	"Indian O-E"	11.75	80.75	0	"Submarine volcano"	"Uncertain"	"Unknown"
	234030	"Est, Ile de l'"	"French Southern & Antarctic Lands"	"Indian O-S"	-46.43	52.2	1090	"Stratovolcano"	"Holocene"	"Unknown"
	234020	"Kerguelen Islands"	"French Southern & Antarctic Lands"	"Indian O-S"	-49.58	69.5	1840	"Stratovolcano"	"Holocene"	"U"
	234010	"Heard"	"Heard I. & McDonald Is."	"Indian O-S"	-53.106	73.513	2745	"Stratovolcano"	"Historical"	"D1"
	234001	"Amsterdam Island"	"Indian Ocean"	"Indian O-S"	-37.83	77.52	881	"Stratovolcano"	"Holocene"	"U"
	234050	"Cochons, Ile Aux"	"Indian Ocean"	"Indian O-S"	-46.1	50.23	775	"Stratovolcano"	"Holocene"	"U"
	234011	"McDonald Islands"	"Indian Ocean"	"Indian O-S"	-53.03	72.6	230	"Complex volcano"	"Historical"	"D1"
	234040	"Possession, Ile de la"	"Indian Ocean"	"Indian O-S"	-46.42	51.75	934	"Stratovolcano"	"Holocene"	"U"
	234060	"Prince Edward Island"	"Indian Ocean"	"Indian O-S"	-46.63	37.95	672	"Shield volcano"	"Holocene"	"U"
	234002	"St. Paul"	"Indian Ocean"	"Indian O-S"	-38.72	77.53	268	"Stratovolcano"	"Historical"	"D4"
	234070	"Marion Island"	"South Africa"	"Indian O-S"	-46.9	37.75	1230	"Shield volcano"	"Historical"	"D1"
	233001	"Grille, La"	"Comoros"	"Indian O-W"	-11.47	43.33	1087	"Shield volcano"	"Holocene"	"U"
	233010	"Karthala"	"Comoros"	"Indian O-W"	-11.75	43.38	2361	"Shield volcano"	"Historical"	"D1"
	233005	"Mayotte"	"France"	"Indian O-W"	-12.83	45.17	660	"Shield"		"D1"
	233020	"Fournaise, Piton de la"	"Reunion"	"Indian O-W"	-21.244	55.708	2632	"Shield volcano"	"Historical"	"D1"
	234000	"Boomerang Seamount"	"Antarctica"	"Indian O.-S"	-37.722	77.822	-650	"Submarine volcano"	"Historical"	"D2"
	262000	"Krakatau"	"Indonesia"	"Indonesia"	-6.101	105.423	285	"Caldera"	"Historical"	"D1"
	232030	"Bazman"	"Iran"	"Iran"	28.07	60	3490	"Stratovolcano"	"Fumarolic"	"U"
	232010	"Damavand"	"Iran"	"Iran"	35.951	52.109	5670	"Stratovolcano"	"Holocene"	"U"
	232040	"Kuh-e Nader"	"Iran"	"Iran"	28.17	60.67	1500	"Volcanic field"	"Holocene"	"Unknown"
		"Qal'eh Hasan Ali"	"Iran"	"Iran"	29.4	57.57	0	"Maar"	"Holocene"	"Unknown"
	232002	"Sabalan"	"Iran"	"Iran"	38.268	47.835	4784	"Stratovolcano"	"Holocene"	"U"
	232001	"Sahand"	"Iran"	"Iran"	37.75	46.43	3707	"Stratovolcano"	"Holocene"	"U"
	232050	"Taftan"	"Iran"	"Iran"	28.6	61.13	3940	"Stratovolcano"	"Holocene"	"U"
		"Unnamed"	"Iran"	"Iran"	39.25	45.167		"Volcanic field"	"Holocene"	"U"
	211010	"Campi Flegrei"	"Italy"	"Italy"	40.827	14.139	458	"Caldera"	"Historical"	"D5"
	211070	"Campi Flegrei del Mar di Sicilia"	"Italy"	"Italy"	37.1	12.7	-8	"Submarine volcanoes"	"Historical"	"D3"
	211004	"Colli Albani"	"Italy"	"Italy"	41.757	12.725	949	"Caldera"	"Holocene"	"Unknown"
	211060	"Etna"	"Italy"	"Italy"	37.748	14.999	3357	"Stratovolcano"	"Historical"	"D1"
	211030	"Ischia"	"Italy"	"Italy"	40.73	13.897	789	"Complex volcano"	"Historical"	"D6"
		"Larderello"	"Italy"	"Italy"	43.25	10.87	500	"Explosion crater"	"Historical"	"D6"
	211042	"Lipari"	"Italy"	"Italy"	38.49	14.933	590	"Stratovolcanoes"	"Radiocarbon"	"D6"
	211080	"Marsili"	"Italy"	"Italy"	39.284	14.399	-779	"Submarine"		"D7"
	211031	"Palinuro"	"Italy"	"Italy"	39.48	14.83	-70	"Submarine volcano"	"Radiocarbon"	"D7"
	211041	"Panarea"	"Italy"	"Italy"	38.638	15.064	399	"Stratovolcano"	"Historical"	"D6"
	211071	"Pantelleria"	"Italy"	"Italy"	36.77	12.02	836	"Shield volcano"	"Historical"	"D3"
	211040	"Stromboli"	"Italy"	"Italy"	38.789	15.213	924	"Stratovolcano"	"Historical"	"D1"
	211020	"Vesuvius"	"Italy"	"Italy"	40.821	14.426	1281	"Complex volcano"	"Historical"	"D2"
	211050	"Vulcano"	"Italy"	"Italy"	38.404	14.962	500	"Stratovolcano"	"Historical"	"D3"
	211003	"Vulsini"	"Italy"	"Italy"	42.6	11.93	800	"Caldera"	"Historical"	"D7"
	284060	"Aogashima"	"Japan"	"Izu Is-Japan"	32.458	139.759	423	"Stratovolcano"	"Historical"	"D4"
	284095	"Doyo Seamount"	"Japan"	"Izu Is-Japan"	27.68	140.8	-590	"Submarine volcano"	"Fumarolic"	"U"
	284050	"Hachijojima"	"Japan"	"Izu Is-Japan"	33.137	139.766	854	"Stratovolcano"	"Historical"	"D5"
	284010	"Izu-Oshima"	"Japan"	"Izu Is-Japan"	34.724	139.394	746	"Stratovolcano"	"Historical"	"D1"
	284090	"Izu-Torishima"	"Japan"	"Izu Is-Japan"	30.484	140.303	394	"Stratovolcano"	"Historical"	"D1"
	284061	"Kita-Bayonnaise"	"Japan"	"Izu Is-Japan"	32.1	139.85	-360	"Submarine volcano"	"Holocene"	"Unknown"
	284030	"Kozushima"	"Japan"	"Izu Is-Japan"	34.219	139.153	572	"Lava dome"	"Historical"	"D6"
	284042	"Kurose Hole"	"Japan"	"Izu Is-Japan"	33.4	139.68	-114	"Submarine volcano"	"Holocene?"	"?"
	284041	"Mikurajima"	"Japan"	"Izu Is-Japan"	33.874	139.602	851	"Submarine volcano"	"Holocene"	"Unknown"
	284040	"Miyakejima"	"Japan"	"Izu Is-Japan"	34.094	139.526	775	"Stratovolcano"	"Historical"	"D1"
	284094	"Mokuyo Seamount"	"Japan"	"Izu Is-Japan"	28.327	140.572	-933	"Submarine volcano"	"Fumarolic"	"U"
	284070	"Myojinsho"	"Japan"	"Izu Is-Japan"	31.888	139.918	11	"Submarine volcano"	"Historical"	"D1"
	284020	"Niijima"	"Japan"	"Izu Is-Japan"	34.397	139.27	432	"Lava dome"	"Historical"	"D6"
	284091	"Sofugan"	"Japan"	"Izu Is-Japan"	29.794	140.342	99	"Submarine volcano"	"Uncertain"	"Unknown"
	284080	"Sumisujima"	"Japan"	"Izu Is-Japan"	31.44	140.051	136	"Submarine volcano"	"Historical"	"D2"
	284011	"Toshima"	"Japan"	"Izu Is-Japan"	34.52	139.279	508	"Stratovolcano"	"Holocene"	"Unknown"
	285061	"Maruyama"	"Japan"	"Japan"	43.418	143.031	2013	"Lava dome"	"Historical"	"D3"
	263290	"Arjuno-Welirang"	"Indonesia"	"Java"	-7.733	112.575	3343	"Stratovolcano"	"Historical"	"D2"
	263351	"Baluran"	"Indonesia"	"Java"	-7.85	114.37	1247	"Stratovolcano"	"Holocene"	"Unknown"
	263170	"Ciremai"	"Indonesia"	"Java"	-6.895	108.408	3039	"Stratovolcano"	"Historical"	"D2"
	263200	"Dieng Volcanic Complex"	"Indonesia"	"Java"	-7.2	109.879	2565	"Complex volcano"	"Historical"	"D1"
	263140	"Galunggung"	"Indonesia"	"Java"	-7.25	108.058	2168	"Stratovolcano"	"Historical"	"D1"
	263060	"Gede-Pangrango"	"Indonesia"	"Java"	-6.786	106.983	3026	"Stratovolcano"	"Historical"	"D2"
	263130	"Guntur"	"Indonesia"	"Java"	-7.143	107.841	2251	"Complex volcano"	"Historical"	"D3"
	263350	"Ijen"	"Indonesia"	"Java"	-8.058	114.242	2769	"Stratovolcano"	"Historical"	"D1"
	263330	"Iyang-Argapura"	"Indonesia"	"Java"	-7.97	113.57	3088	"Complex volcano"	"Holocene"	"U"
		"Karaha, Kawah"	"Indonesia"	"Java"	-7.12	108.08	1155	"Fumarole field"	"Fumarolic"	"U"
	263020	"Karang"	"Indonesia"	"Java"	-6.268	106.05	1768	"Stratovolcano"	"Holocene"	"Unknown"
	263281	"Kawi-Butak"	"Indonesia"	"Java"	-7.92	112.45	2651	"Stratovolcano"	"Holocene"	"U"
	263280	"Kelud"	"Indonesia"	"Java"	-7.935	112.314	1730	"Stratovolcano"	"Historical"	"D1"
	263110	"Kendang"	"Indonesia"	"Java"	-7.245	107.709	2594	"Stratovolcano"	"Holocene"	"U"
		"Kiaraberes-Gagak"	"Indonesia"	"Java"	-6.73	106.65	1511	"Stratovolcano"	"Historical"	"D2"
	263320	"Lamongan"	"Indonesia"	"Java"	-7.981	113.341	1641	"Stratovolcano"	"Historical"	"D3"
	263260	"Lawu"	"Indonesia"	"Java"	-7.625	111.192	3265	"Stratovolcano"	"Holocene"	"U"
		"Lurus"	"Indonesia"	"Java"	-7.7	113.58	539	"Complex volcano"	"Holocene"	"Unknown"
		"Malabar"	"Indonesia"	"Java"	-7.13	107.65	2343	"Stratovolcano"	"Holocene"	"Unknown"
		"Malang Plain"	"Indonesia"	"Java"	-8.02	112.68	680	"Maar"	"Holocene"	"U"
	263250	"Merapi"	"Indonesia"	"Java"	-7.54	110.446	2910	"Stratovolcano"	"Historical"	"D1"
	263240	"Merbabu"	"Indonesia"	"Java"	-7.454	110.44	3118	"Stratovolcano"	"Historical"	"D4"
	263251	"Muria"	"Indonesia"	"Java"	-6.62	110.88	1625	"Stratovolcano"	"Holocene"	"D7"
	263100	"Papandayan"	"Indonesia"	"Java"	-7.32	107.73	2665	"Stratovolcano"	"Historical"	"D2"
	263070	"Patuha"	"Indonesia"	"Java"	-7.162	107.4	2422	"Stratovolcano"	"Holocene"	"U"
	263291	"Penanggungan"	"Indonesia"	"Java"	-7.616	112.62	1631	"Stratovolcano"	"Holocene"	"U"
	263040	"Perbakti-Gagak"	"Indonesia"	"Java"	-6.75	106.675	1726	"Stratovolcano"	"Fumarolic"	"U"
	263010	"Pulosari"	"Indonesia"	"Java"	-6.343	105.978	1324	"Caldera"	"Holocene"	"U"
	263340	"Raung"	"Indonesia"	"Java"	-8.119	114.056	3260	"Stratovolcano"	"Historical"	"D1"
	263050	"Salak"	"Indonesia"	"Java"	-6.716	106.733	2218	"Stratovolcano"	"Historical"	"D2"
	263300	"Semeru"	"Indonesia"	"Java"	-8.108	112.922	3657	"Stratovolcano"	"Historical"	"D1"
	263180	"Slamet"	"Indonesia"	"Java"	-7.242	109.208	3428	"Stratovolcano"	"Historical"	"D1"
	263220	"Sumbing"	"Indonesia"	"Java"	-7.384	110.07	3371	"Stratovolcano"	"Historical"	"D4"
	263210	"Sundoro"	"Indonesia"	"Java"	-7.302	109.996	3147	"Stratovolcano"	"Historical"	"D1"
	263150	"Talagabodas"	"Indonesia"	"Java"	-7.208	108.07	2201	"Stratovolcano"	"Fumarolic"	"U"
	263131	"Tampomas"	"Indonesia"	"Java"	-6.764	107.961	1690	"Stratovolcano"	"Holocene"	"U"
	263090	"Tangkuban Parahu"	"Indonesia"	"Java"	-6.77	107.6	2084	"Stratovolcano"	"Historical"	"D1"
	263231	"Telomoyo"	"Indonesia"	"Java"	-7.362	110.4	1864	"Stratovolcano"	"Holocene"	"U"
	263310	"Tengger Caldera"	"Indonesia"	"Java"	-7.942	112.95	2329	"Stratovolcano"	"Historical"	"D1"
	263230	"Ungaran"	"Indonesia"	"Java"	-7.188	110.346	2033	"Stratovolcano"	"Holocene"	"U"
		"Wayang-Windu"	"Indonesia"	"Java"	-7.208	107.63	2182	"Lava dome"	"Fumarolic"	"U"
	263270	"Wilis"	"Indonesia"	"Java"	-7.808	111.758	2563	"Stratovolcano"	"Holocene"	"U"
	300125	"Akademia Nauk"	"Russia"	"Kamchatka"	53.98	159.45	1180	"Stratovolcanoes"	"Historical"	"D2"
	300320	"Akhtang"	"Russia"	"Kamchatka"	55.43	158.65	1956	"Shield volcano"	"Holocene"	"U"
	300450	"Alney-Chashakondzha"	"Russia"	"Kamchatka"	56.656	159.647	2570	"Stratovolcano"	"Holocene"	"U"
	300600	"Alngey"	"Russia"	"Kamchatka"	57.702	160.418	1822	"Stratovolcano"	"Holocene"	"U"
	300390	"Anaun"	"Russia"	"Kamchatka"	56.32	158.83	1828	"Stratovolcano"	"Holocene"	"U"
	300058	"Asacha"	"Russia"	"Kamchatka"	52.355	157.827	1910	"Pyroclastic cone"	"Holocene"	"U"
	300100	"Avachinsky"	"Russia"	"Kamchatka"	53.256	158.836	2717	"Stratovolcano"	"Historical"	"D1"
	300123	"Bakening"	"Russia"	"Kamchatka"	53.905	158.07	2278	"Stratovolcano"	"Historical"	"D1"
	300084	"Barkhatnaya Sopka"	"Russia"	"Kamchatka"	52.802	158.24	874	"Lava dome"	"Tephrochronology"	"D7"
	300042	"Belenkaya"	"Russia"	"Kamchatka"	51.75	157.27	892	"Stratovolcano"	"Holocene"	"U"
	300640	"Bely"	"Russia"	"Kamchatka"	57.88	160.53	2080	"Shield volcano"	"Holocene"	"U"
	300250	"Bezymianny"	"Russia"	"Kamchatka"	55.972	160.595	2882	"Stratovolcano"	"Historical"	"D1"
	300490	"Bliznets"	"Russia"	"Kamchatka"	56.97	159.78	1244	"Stratovolcano"	"Holocene"	"U"
	300552	"Bliznetsy"	"Russia"	"Kamchatka"	57.35	161.37	265	"Lava cone"	"Radiocarbon"	"D7"
	300087	"Bolshe-Bannaya"	"Russia"	"Kamchatka"	52.9	157.78	1200	"Lava dome"	"Holocene"	"U"
	300300	"Bolshoi Payalpan"	"Russia"	"Kamchatka"	55.88	157.78	1906	"Shield volcano"	"Holocene"	"U"
	300150	"Bolshoi Semiachik"	"Russia"	"Kamchatka"	54.32	160.02	1720	"Stratovolcano"	"Radiocarbon"	"D7"
	300360	"Bolshoi-Kekuknaysky"	"Russia"	"Kamchatka"	56.483	157.917	1401	"Shield volcano"	"Holocene"	"U"
	300460	"Cherny"	"Russia"	"Kamchatka"	56.82	159.67	1778	"Stratovolcano"	"Holocene"	"U"
	300273	"Cherpuk Group"	"Russia"	"Kamchatka"	55.55	157.47	1868	"Pyroclastic cones"	"Radiocarbon"	"D7"
	300022	"Diky Greben"	"Russia"	"Kamchatka"	51.452	156.978	1040	"Lava dome"	"Radiocarbon"	"D6"
	300110	"Dzenzursky"	"Russia"	"Kamchatka"	53.637	158.922	2285	"Compound volcano"	"Holocene"	"U"
	300420	"Eggella"	"Russia"	"Kamchatka"	56.57	158.52	1046	"Shield volcano"	"Holocene"	"U"
	300590	"Elovsky"	"Russia"	"Kamchatka"	57.55	160.53	1381	"Shield volcano"	"Holocene"	"U"
	300510	"Fedotych"	"Russia"	"Kamchatka"	57.13	160.4	965	"Shield volcano"	"Holocene"	"U"
	300210	"Gamchen"	"Russia"	"Kamchatka"	54.974	160.703	2539	"Complex volcano"	"Holocene"	"U"
	300380	"Geodesistoy"	"Russia"	"Kamchatka"	56.33	158.67	1170	"Shield volcano"	"Holocene"	"U"
	300057	"Golaya"	"Russia"	"Kamchatka"	52.263	157.787	858	"Shield volcano"	"Holocene"	"U"
	300070	"Gorely"	"Russia"	"Kamchatka"	52.555	158.036	1799	"Caldera"	"Historical"	"D1"
	300550	"Gorny Institute"	"Russia"	"Kamchatka"	57.33	160.2	2125	"Stratovolcano"	"Holocene"	"U"
	300280	"Ichinsky"	"Russia"	"Kamchatka"	55.678	157.718	3596	"Stratovolcano"	"Holocene"	"U"
	300710	"Iettunup"	"Russia"	"Kamchatka"	58.4	161.08	1340	"Shield volcano"	"Holocene"	"U"
	300670	"Iktunup"	"Russia"	"Kamchatka"	58.08	160.77	2300	"Shield volcano"	"Holocene"	"U"
	300030	"Iliinsky"	"Russia"	"Kamchatka"	51.498	157.203	1555	"Stratovolcano"	"Historical"	"D2"
	300620	"Kaileney"	"Russia"	"Kamchatka"	57.8	160.67	1582	"Shield volcano"	"Holocene"	"U"
	300010	"Kambalny"	"Russia"	"Kamchatka"	51.306	156.875	2116	"Stratovolcano"	"Holocene"	"U"
	300251	"Kamen"	"Russia"	"Kamchatka"	56.02	160.593	4585	"Stratovolcano"	"Holocene"	"U"
	300130	"Karymsky"	"Russia"	"Kamchatka"	54.049	159.443	1513	"Stratovolcano"	"Historical"	"D1"
	300500	"Kebeney"	"Russia"	"Kamchatka"	57.1	159.93	1527	"Shield volcano"	"Holocene"	"U"
	300410	"Kekurny"	"Russia"	"Kamchatka"	56.4	158.85	1377	"Shield volcano"	"Holocene"	"U"
	300041	"Kell"	"Russia"	"Kamchatka"	51.65	157.35	900	"Stratovolcano"	"Holocene"	"U"
	300272	"Khangar"	"Russia"	"Kamchatka"	54.761	157.407	1967	"Stratovolcano"	"Radiocarbon"	"D7"
	300053	"Khodutka"	"Russia"	"Kamchatka"	52.062	157.711	2039	"Stratovolcano"	"Radiocarbon"	"D7"
	300180	"Kikhpinych"	"Russia"	"Kamchatka"	54.489	160.251	1515	"Stratovolcano"	"Radiocarbon"	"D5"
	300551	"Kinenin"	"Russia"	"Kamchatka"	57.35	160.97	583	"Maar"	"Radiocarbon"	"D6"
	300230	"Kizimen"	"Russia"	"Kamchatka"	55.131	160.32	2334	"Stratovolcano"	"Historical"	"D2"
	300260	"Klyuchevskoy"	"Russia"	"Kamchatka"	56.056	160.642	4754	"Stratovolcano"	"Historical"	"D1"
	300220	"Komarov"	"Russia"	"Kamchatka"	55.033	160.725	2065	"Stratovolcano"	"Holocene"	"U"
	300090	"Koryaksky"	"Russia"	"Kamchatka"	53.321	158.712	3430	"Stratovolcano"	"Historical"	"D2"
	300020	"Koshelev"	"Russia"	"Kamchatka"	51.356	156.753	1822	"Stratovolcano"	"Historical"	"D5"
	300122	"Kostakan"	"Russia"	"Kamchatka"	53.833	158.052	1150	"Stratovolcano"	"Tephrochronology"	"D7"
	300330	"Kozyrevsky"	"Russia"	"Kamchatka"	55.58	158.38	2016	"Shield volcano"	"Holocene"	"U"
	300400	"Krainy"	"Russia"	"Kamchatka"	56.37	159.03	1554	"Shield volcano"	"Holocene"	"U"
	300190	"Krasheninnikov"	"Russia"	"Kamchatka"	54.596	160.27	1816	"Caldera"	"Radiocarbon"	"D5"
	300200	"Kronotsky"	"Russia"	"Kamchatka"	54.753	160.533	3482	"Stratovolcano"	"Historical"	"D2"
	300050	"Ksudach"	"Russia"	"Kamchatka"	51.844	157.572	1079	"Stratovolcano"	"Historical"	"D2"
	300370	"Kulkev"	"Russia"	"Kamchatka"	56.37	158.37	915	"Shield volcano"	"Holocene"	"U"
	300023	"Kurile Lake"	"Russia"	"Kamchatka"	51.45	157.12	81	"Caldera"	"Radiocarbon"	"D7"
	300530	"Leutongey"	"Russia"	"Kamchatka"	57.306	159.827	1318	"Shield volcano"	"Holocene"	"U"
	300290	"Maly Payalpan"	"Russia"	"Kamchatka"	55.82	157.98	1802	"Shield volcano"	"Holocene"	"U"
	300140	"Maly Semyachik"	"Russia"	"Kamchatka"	54.135	159.674	1527	"Caldera"	"Historical"	"D2"
	300001	"Mashkovtsev"	"Russia"	"Kamchatka"	51.1	156.72	503	"Stratovolcano"	"Holocene"	"U"
	300570	"Mezhdusopochny"	"Russia"	"Kamchatka"	57.47	160.25	1641	"Shield volcano"	"Holocene"	"U"
	300060	"Mutnovsky"	"Russia"	"Kamchatka"	52.449	158.196	2288	"Complex volcano"	"Historical"	"D2"
	300650	"Nylgimelkin"	"Russia"	"Kamchatka"	57.97	160.65	1764	"Shield volcano"	"Holocene"	"U"
	300052	"Olkoviy Volcanic Group"	"Russia"	"Kamchatka"	52.02	157.53	681	"Volcanic field"	"Holocene"	"U"
	300080	"Opala"	"Russia"	"Kamchatka"	52.543	157.339	2439	"Caldera"	"Radiocarbon"	"D6"
	300055	"Ostanets"	"Russia"	"Kamchatka"	52.146	157.322	719	"Shield volcano"	"Holocene"	"U"
	300680	"Ostry"	"Russia"	"Kamchatka"	58.18	160.82	2552	"Stratovolcano"	"Holocene"	"U"
	300056	"Otdelniy"	"Russia"	"Kamchatka"	52.221	157.435	814	"Shield volcano"	"Holocene"	"U"
	300051	"Ozernoy"	"Russia"	"Kamchatka"	51.88	157.38	562	"Shield volcano"	"Holocene"	"U"
	300054	"Piratkovsky"	"Russia"	"Kamchatka"	52.113	157.849	1322	"Stratovolcano"	"Holocene"	"U"
	300310	"Plosky"	"Russia"	"Kamchatka"	55.2	158.47	1236	"Shield volcano"	"Holocene"	"U"
	300630	"Plosky"	"Russia"	"Kamchatka"	57.83	160.25	1255	"Shield volcano"	"Holocene"	"U"
	300470	"Pogranychny"	"Russia"	"Kamchatka"	56.85	159.8	1427	"Shield volcano"	"Holocene"	"U"
	300340	"Romanovka"	"Russia"	"Kamchatka"	55.65	158.8	1442	"Stratovolcano"	"Holocene"	"U"
	300201	"Schmidt"	"Russia"	"Kamchatka"	54.92	160.63	2020	"Shield volcano"	"Holocene"	"U"
	300520	"Sedanka Lava Field"	"Russia"	"Kamchatka"	57.317	160.067	1399	"Shield volcano"	"Holocene"	"U"
	300700	"Severny"	"Russia"	"Kamchatka"	58.28	160.87	1936	"Shield volcano"	"Holocene"	"U"
	300270	"Sheveluch"	"Russia"	"Kamchatka"	56.653	161.36	3283	"Stratovolcano"	"Historical"	"D1"
	300511	"Shisheika"	"Russia"	"Kamchatka"	57.153	161.09	355	"Lava dome"	"Radiocarbon"	"D7"
	300580	"Shishel"	"Russia"	"Kamchatka"	57.45	160.37	2525	"Shield volcano"	"Holocene"	"U"
	300690	"Snegovoy"	"Russia"	"Kamchatka"	58.2	160.97	2169	"Shield volcano"	"Holocene"	"U"
	300660	"Snezhniy"	"Russia"	"Kamchatka"	58.02	160.8	2169	"Shield volcano"	"Holocene"	"U"
	300671	"Spokoiny"	"Russia"	"Kamchatka"	58.13	160.82	2171	"Stratovolcano"	"Radiocarbon"	"D7"
	300160	"Taunshits"	"Russia"	"Kamchatka"	54.528	159.804	2301	"Stratovolcano"	"Radiocarbon"	"D7"
	300512	"Terpuk"	"Russia"	"Kamchatka"	57.2	159.83	765	"Shield volcano"	"Radiocarbon"	"D7"
	300560	"Titila"	"Russia"	"Kamchatka"	57.406	160.108	1523	"Shield volcano"	"Holocene"	"U"
	300240	"Tolbachik"	"Russia"	"Kamchatka"	55.832	160.326	3611	"Shield volcano"	"Historical"	"D1"
	300082	"Tolmachev Dol"	"Russia"	"Kamchatka"	52.63	157.58	1021	"Cinder cone"	"Holocene"	"U"
	300540	"Tuzovsky"	"Russia"	"Kamchatka"	57.32	159.967	1516	"Shield volcano"	"Holocene"	"U"
	300241	"Udina"	"Russia"	"Kamchatka"	55.758	160.527	2886	"Stratovolcano"	"Holocene"	"U"
	300610	"Uka"	"Russia"	"Kamchatka"	57.706	160.59	1607	"Shield volcano"	"Holocene"	"U"
	300350	"Uksichan"	"Russia"	"Kamchatka"	56.08	158.38	1692	"Shield volcano"	"Holocene"	"U"
		"Unnamed"	"Russia"	"Kamchatka"	56.82	158.95	1185	"Shield volcano"	"Holocene"	"U"
		"Unnamed"	"Russia"	"Kamchatka"	52.57	157.02	610	"Cinder cone"	"Holocene"	"U"
		"Unnamed"	"Russia"	"Kamchatka"	52.92	158.52	450	"Shield volcano"	"Holocene"	"U"
		"Unnamed"	"Russia"	"Kamchatka"	52.88	158.3	700	"Shield volcano"	"Holocene"	"U"
		"Unnamed"	"Russia"	"Kamchatka"	55.92	161.75	0	"Cinder cone"	"Holocene"	"Unknown"
	300261	"Ushkovsky"	"Russia"	"Kamchatka"	56.113	160.509	3943	"Compound volcano"	"Historical"	"D3"
	300170	"Uzon"	"Russia"	"Kamchatka"	54.489	159.974	1617	"Caldera"	"Radiocarbon"	"D7"
	300121	"Veer"	"Russia"	"Kamchatka"	53.753	158.448	520	"Stratovolcano"	"Radiocarbon"	"D7"
	300440	"Verkhovoy"	"Russia"	"Kamchatka"	56.52	159.53	1400	"Shield volcano"	"Holocene"	"U"
	300083	"Vilyuchinsky"	"Russia"	"Kamchatka"	52.7	158.28	2173	"Stratovolcano"	"Tephrochronology"	"D7"
	300059	"Visokiy"	"Russia"	"Kamchatka"	52.435	157.933	1227	"Shield volcano"	"Holocene"	"U"
	300720	"Voyampolsky"	"Russia"	"Kamchatka"	58.374	160.631	1103	"Shield volcano"	"Holocene"	"U"
	300221	"Vysoky"	"Russia"	"Kamchatka"	55.064	160.765	2129	"Stratovolcano"	"Holocene"	"U"
	300021	"Yavinsky"	"Russia"	"Kamchatka"	51.533	156.629	646	"Cinder cone"	"Holocene"	"U"
	300480	"Zaozerny"	"Russia"	"Kamchatka"	56.88	159.95	1349	"Shield volcano"	"Holocene"	"U"
	300124	"Zavaritsky"	"Russia"	"Kamchatka"	53.905	158.385	1567	"Cinder cones"	"Radiocarbon"	"D7"
	300040	"Zheltovsky"	"Russia"	"Kamchatka"	51.577	157.328	1926	"Stratovolcano"	"Historical"	"D1"
	300120	"Zhupanovsky"	"Russia"	"Kamchatka"	53.589	159.15	2899	"Compound volcano"	"Historical"	"D2"
	300242	"Zimina"	"Russia"	"Kamchatka"	55.862	160.603	3057	"Stratovolcano"	"Holocene"	"U"
	300271	"Piip"	"Russia"	"Kamchatka-E of"	55.42	167.33	-300	"Submarine volcano"	"Tephrochronology"	"D7"
		"Brimstone Island"	"New Zealand"	"Kermadec Is"	-30.23	-178.92	-2000	"Submarine volcano"	"Uncertain"	"Unknown"
	242010	"Curtis Island"	"New Zealand"	"Kermadec Is"	-30.543	-178.556	47	"Submarine volcano"	"Uncertain"	"Unknown"
	242022	"Giggenbach"	"New Zealand"	"Kermadec Is"	-30.036	-178.712	-65	"Submarine volcano"	"Fumarolic"	"U"
	242005	"Havre Seamount"	"New Zealand"	"Kermadec Is"	-31.08	-179.033	-897	"Submarine"		"D1"
	242021	"Macauley"	"New Zealand"	"Kermadec Is"	-30.21	-178.475	238	"Caldera"	"Holocene"	"U"
	242050	"Monowai"	"New Zealand"	"Kermadec Is"	-25.887	-177.188	-132	"Submarine volcano"	"Historical"	"D1"
	242030	"Raoul Island"	"New Zealand"	"Kermadec Is"	-29.27	-177.92	516	"Stratovolcano"	"Historical"	"D1"
		"Unnamed"	"New Zealand"	"Kermadec Is"	-29.18	-177.87	-560	"Submarine volcano"	"Historical"	"D3"
	242001	"Wright"	"New Zealand"	"Kermadec Is"	-31.85	-179.18	-900	"Submarine volcanoes"	"Fumarolic"	"U"
	306020	"Ch'uga-ryong"	"North Korea"	"Korea"	38.33	127.33	452	"Shield volcano"	"Holocene"	"Unknown"
		"Xianjindao"	"North Korea"	"Korea"	41.33	128	0	"Unknown"	"Historical"	"D5"
	306040	"Halla"	"South Korea"	"Korea"	33.361	126.53	1919	"Shield volcano"	"Historical"	"D6"
	306030	"Ulleungdo"	"South Korea"	"Korea"	37.5	130.87	984	"Stratovolcano"	"Radiocarbon"	"D7"
	290390	"Alaid"	"Russia"	"Kuril Is"	50.861	155.565	2285	"Stratovolcano"	"Historical"	"D1"
	290040	"Berutarubesan [Berutarube]"	"Russia"	"Kuril Is"	44.462	146.932	1221	"Stratovolcano"	"Holocene"	"U"
	290030	"Chachadake [Tiatia]"	"Russia"	"Kuril Is"	44.353	146.252	1822	"Stratovolcano"	"Historical"	"D1"
	290360	"Chikurachki"	"Russia"	"Kuril Is"	50.324	155.461	1781	"Stratovolcano"	"Historical"	"D1"
	290260	"Chirinkotan"	"Russia"	"Kuril Is"	48.98	153.48	724	"Stratovolcano"	"Historical"	"D1"
	290090	"Chirippusan [Chirip]"	"Russia"	"Kuril Is"	45.338	147.92	1587	"Stratovolcano"	"Historical"	"D3"
	290150	"Chirpoi"	"Russia"	"Kuril Is"	46.532	150.871	742	"Caldera"	"Historical"	"D1"
	290380	"Ebeko"	"Russia"	"Kuril Is"	50.686	156.014	1103	"Somma volcano"	"Historical"	"D1"
	290270	"Ekarma"	"Russia"	"Kuril Is"	48.958	153.93	1170	"Stratovolcano"	"Historical"	"D1"
	290050	"Etorofu-Atosanupuri [Atosanupuri]"	"Russia"	"Kuril Is"	44.808	147.131	1206	"Stratovolcano"	"Historical"	"D2"
	290070	"Etorofu-Yakeyama [Grozny Group]"	"Russia"	"Kuril Is"	45.012	147.871	1158	"Complex volcano"	"Historical"	"D1"
	290340	"Fuss Peak"	"Russia"	"Kuril Is"	50.267	155.246	1742	"Stratovolcano"	"Historical"	"D3"
		"Goriaschaia Sopka"	"Russia"	"Kuril Is"	46.83	151.75	891	"Stratovolcano"	"Historical"	"D2"
	290060	"Hitokappu Volcano Group"	"Russia"	"Kuril Is"	44.857	147.403	1610	"Stratovolcano"	"Holocene"	"U"
	290111	"Ivao Group"	"Russia"	"Kuril Is"	45.759	149.676	1426	"Cinder cone"	"Holocene"	"U"
	290350	"Karpinsky Group"	"Russia"	"Kuril Is"	50.148	155.373	1326	"Cone"	"Historical"	"D2"
	290200	"Ketoi"	"Russia"	"Kuril Is"	47.35	152.475	1172	"Stratovolcano"	"Historical"	"D2"
	290300	"Kharimkotan"	"Russia"	"Kuril Is"	49.12	154.508	1145	"Stratovolcano"	"Historical"	"D2"
	290120	"Kolokol Group"	"Russia"	"Kuril Is"	46.042	150.083	1328	"Somma volcano"	"Historical"	"D1"
		"Lomonosov Group"	"Russia"	"Kuril Is"	50.25	155.43	1681	"Cinder cone"	"Holocene"	"U"
	290161	"Milna"	"Russia"	"Kuril Is"	46.815	151.786	1504	"Somma volcano"	"Holocene"	"U"
	290041	"Moekeshiwan [Lvinaya Past]"	"Russia"	"Kuril Is"	44.608	146.994	528	"Stratovolcano"	"Radiocarbon"	"D7"
	290100	"Moyorodake [Medvezhia]"	"Russia"	"Kuril Is"	45.389	148.838	1124	"Somma volcano"	"Historical"	"D1"
	290320	"Nemo Peak"	"Russia"	"Kuril Is"	49.57	154.808	1018	"Caldera"	"Historical"	"D2"
	290072	"Odamoisan [Tebenkov]"	"Russia"	"Kuril Is"	45.028	147.918	1208	"Stratovolcano"		"Unknown"
	290190	"Prevo Peak"	"Russia"	"Kuril Is"	47.014	152.117	1360	"Stratovolcano"	"Historical"	"D3"
	290250	"Raikoke"	"Russia"	"Kuril Is"	48.292	153.25	551	"Stratovolcano"	"Historical"	"D2"
	290110	"Rakkibetsudake [Demon]"	"Russia"	"Kuril Is"	45.5	148.85	1205	"Stratovolcano"	"Holocene"	"U"
	290220	"Rasshua"	"Russia"	"Kuril Is"	47.77	153.02	956	"Stratovolcano"	"Historical"	"D2"
	290020	"Raususan [Mendeleev]"	"Russia"	"Kuril Is"	43.979	145.733	882	"Stratovolcano"	"Historical"	"D3"
	290091	"Rucharuyama [Golets-Tornyi Group]"	"Russia"	"Kuril Is"	45.25	148.35	442	"Pyroclastic cone"	"Holocene"	"Unknown"
	290112	"Rudakov"	"Russia"	"Kuril Is"	45.874	149.819	532	"Stratovolcano"	"Holocene"	"Unknown"
	290021	"Ruruidake [Smirnov]"	"Russia"	"Kuril Is"	44.454	146.139	1486	"Stratovolcano"	"Holocene"	"U"
	290240	"Sarychev Peak"	"Russia"	"Kuril Is"	48.092	153.2	1496	"Stratovolcano"	"Historical"	"D1"
